[
  {
    "sortLetters": "A",
    "items": [
      {
        "index": 55,
        "name": "阿坝藏族羌族自治州",
        "shortName": "阿坝",
        "sortLetters": "A",
        "pinyin": "Aba",
        "lat": 32.9082209186247,
        "lng": 101.71360970816114,
        "address": "四川省/阿坝藏族羌族自治州",
        "code": "513200",
        "province": "510000",
        "city": ""
      },
      {
        "index": 56,
        "name": "阿克苏地区",
        "shortName": "阿克苏",
        "sortLetters": "A",
        "pinyin": "Akesu",
        "lat": 41.17502986007749,
        "lng": 80.26694348473501,
        "address": "新疆维吾尔自治区/阿克苏地区",
        "code": "652900",
        "province": "650000",
        "city": ""
      },
      {
        "index": 57,
        "name": "阿拉善盟",
        "shortName": "阿拉善盟",
        "sortLetters": "A",
        "pinyin": "Alashanmeng",
        "lat": 38.858275883056955,
        "lng": 105.73537746449358,
        "address": "内蒙古自治区/阿拉善盟",
        "code": "152900",
        "province": "150000",
        "city": ""
      },
      {
        "index": 58,
        "name": "阿勒泰地区",
        "shortName": "阿勒泰",
        "sortLetters": "A",
        "pinyin": "Aletai",
        "lat": 47.85072787010195,
        "lng": 88.14792620373527,
        "address": "新疆维吾尔自治区/阿勒泰地区",
        "code": "654300",
        "province": "650000",
        "city": ""
      },
      {
        "index": 59,
        "name": "阿里地区",
        "shortName": "阿里",
        "sortLetters": "A",
        "pinyin": "Ali",
        "lat": 32.50686601763335,
        "lng": 80.11277692192645,
        "address": "西藏自治区/阿里地区",
        "code": "542500",
        "province": "540000",
        "city": ""
      },
      {
        "index": 60,
        "name": "安康市",
        "shortName": "安康",
        "sortLetters": "A",
        "pinyin": "Ankang",
        "lat": 32.69051277057377,
        "lng": 109.03560108265746,
        "address": "陕西省/安康市",
        "code": "610900",
        "province": "610000",
        "city": ""
      },
      {
        "index": 61,
        "name": "安庆市",
        "shortName": "安庆",
        "sortLetters": "A",
        "pinyin": "Anqing",
        "lat": 30.53095656804304,
        "lng": 117.06360390491879,
        "address": "安徽省/安庆市",
        "code": "340800",
        "province": "340000",
        "city": ""
      },
      {
        "index": 62,
        "name": "鞍山市",
        "shortName": "鞍山",
        "sortLetters": "A",
        "pinyin": "Anshan",
        "lat": 41.11505359694933,
        "lng": 123.00137251399407,
        "address": "辽宁省/鞍山市",
        "code": "210300",
        "province": "210000",
        "city": ""
      },
      {
        "index": 63,
        "name": "安顺市",
        "shortName": "安顺",
        "sortLetters": "A",
        "pinyin": "Anshun",
        "lat": 26.25925237871499,
        "lng": 105.95441712388904,
        "address": "贵州省/安顺市",
        "code": "520400",
        "province": "520000",
        "city": ""
      },
      {
        "index": 64,
        "name": "安阳市",
        "shortName": "安阳",
        "sortLetters": "A",
        "pinyin": "Anyang",
        "lat": 36.10594098401491,
        "lng": 114.39950042177432,
        "address": "河南省/安阳市",
        "code": "410500",
        "province": "410000",
        "city": ""
      }
    ]
  },
  {
    "sortLetters": "B",
    "items": [
      {
        "index": 65,
        "name": "白城市",
        "shortName": "白城",
        "sortLetters": "B",
        "pinyin": "Baicheng",
        "lat": 45.62550435999602,
        "lng": 122.8455906084976,
        "address": "吉林省/白城市",
        "code": "220800",
        "province": "220000",
        "city": ""
      },
      {
        "index": 66,
        "name": "百色市",
        "shortName": "百色",
        "sortLetters": "B",
        "pinyin": "Baise",
        "lat": 23.908185934295958,
        "lng": 106.62458932565383,
        "address": "广西壮族自治区/百色市",
        "code": "451000",
        "province": "450000",
        "city": ""
      },
      {
        "index": 67,
        "name": "白山市",
        "shortName": "白山",
        "sortLetters": "B",
        "pinyin": "Baishan",
        "lat": 41.93962720532889,
        "lng": 126.42963008937573,
        "address": "吉林省/白山市",
        "code": "220600",
        "province": "220000",
        "city": ""
      },
      {
        "index": 68,
        "name": "白银市",
        "shortName": "白银",
        "sortLetters": "B",
        "pinyin": "Baiyin",
        "lat": 36.55082533041454,
        "lng": 104.1444508283435,
        "address": "甘肃省/白银市",
        "code": "620400",
        "province": "620000",
        "city": ""
      },
      {
        "index": 69,
        "name": "蚌埠市",
        "shortName": "蚌埠",
        "sortLetters": "B",
        "pinyin": "Bangbu",
        "lat": 32.921523704350825,
        "lng": 117.39551332813694,
        "address": "安徽省/蚌埠市",
        "code": "340300",
        "province": "340000",
        "city": ""
      },
      {
        "index": 70,
        "name": "保定市",
        "shortName": "保定",
        "sortLetters": "B",
        "pinyin": "Baoding",
        "lat": 38.87998776845534,
        "lng": 115.47146383768579,
        "address": "河北省/保定市",
        "code": "130600",
        "province": "130000",
        "city": ""
      },
      {
        "index": 71,
        "name": "宝鸡市",
        "shortName": "宝鸡",
        "sortLetters": "B",
        "pinyin": "Baoji",
        "lat": 34.36891564286998,
        "lng": 107.2445753670404,
        "address": "陕西省/宝鸡市",
        "code": "610300",
        "province": "610000",
        "city": ""
      },
      {
        "index": 72,
        "name": "保山市",
        "shortName": "保山",
        "sortLetters": "B",
        "pinyin": "Baoshan",
        "lat": 25.139038793265964,
        "lng": 99.17727328581788,
        "address": "云南省/保山市",
        "code": "530500",
        "province": "530000",
        "city": ""
      },
      {
        "index": 73,
        "name": "包头市",
        "shortName": "包头",
        "sortLetters": "B",
        "pinyin": "Baotou",
        "lat": 40.66292878826139,
        "lng": 109.84654350721243,
        "address": "内蒙古自治区/包头市",
        "code": "150200",
        "province": "150000",
        "city": ""
      },
      {
        "index": 74,
        "name": "巴彦淖尔市",
        "shortName": "巴彦淖尔",
        "sortLetters": "B",
        "pinyin": "Bayannaoer",
        "lat": 40.7493594895728,
        "lng": 107.39439808372491,
        "address": "内蒙古自治区/巴彦淖尔市",
        "code": "150800",
        "province": "150000",
        "city": ""
      },
      {
        "index": 75,
        "name": "巴音郭楞蒙古自治州",
        "shortName": "巴音郭楞",
        "sortLetters": "B",
        "pinyin": "Bayinguoleng",
        "lat": 41.7702873304504,
        "lng": 86.1517138653326,
        "address": "新疆维吾尔自治区/巴音郭楞蒙古自治州",
        "code": "652800",
        "province": "650000",
        "city": ""
      },
      {
        "index": 76,
        "name": "巴中市",
        "shortName": "巴中",
        "sortLetters": "B",
        "pinyin": "Bazhong",
        "lat": 31.872888585956545,
        "lng": 106.7515853031645,
        "address": "四川省/巴中市",
        "code": "511900",
        "province": "510000",
        "city": ""
      },
      {
        "index": 77,
        "name": "北海市",
        "shortName": "北海",
        "sortLetters": "B",
        "pinyin": "Beihai",
        "lat": 21.48683649576942,
        "lng": 109.126533212566,
        "address": "广西壮族自治区/北海市",
        "code": "450500",
        "province": "450000",
        "city": ""
      },
      {
        "index": 78,
        "name": "本溪市",
        "shortName": "本溪",
        "sortLetters": "B",
        "pinyin": "Benxi",
        "lat": 41.49291646055291,
        "lng": 123.69250712420832,
        "address": "辽宁省/本溪市",
        "code": "210500",
        "province": "210000",
        "city": ""
      },
      {
        "index": 79,
        "name": "毕节市",
        "shortName": "毕节",
        "sortLetters": "B",
        "pinyin": "Bijie",
        "lat": 27.29021508342595,
        "lng": 105.2985887950112,
        "address": "贵州省/毕节市",
        "code": "520500",
        "province": "520000",
        "city": ""
      },
      {
        "index": 80,
        "name": "滨州市",
        "shortName": "滨州",
        "sortLetters": "B",
        "pinyin": "Binzhou",
        "lat": 37.3881961960769,
        "lng": 117.9774040171467,
        "address": "山东省/滨州市",
        "code": "371600",
        "province": "370000",
        "city": ""
      },
      {
        "index": 81,
        "name": "博尔塔拉蒙古自治州",
        "shortName": "博尔塔拉",
        "sortLetters": "B",
        "pinyin": "Boertala",
        "lat": 44.9121964134647,
        "lng": 82.07291475827434,
        "address": "新疆维吾尔自治区/博尔塔拉蒙古自治州",
        "code": "652700",
        "province": "650000",
        "city": ""
      },
      {
        "index": 82,
        "name": "亳州市",
        "shortName": "亳州",
        "sortLetters": "B",
        "pinyin": "Bozhou",
        "lat": 33.850642695788835,
        "lng": 115.7844632112745,
        "address": "安徽省/亳州市",
        "code": "341600",
        "province": "340000",
        "city": ""
      },
      {
        "index": 346,
        "name": "巴彦淖尔市",
        "shortName": "巴彦",
        "sortLetters": "B",
        "pinyin": "Bayan",
        "lat": 40.7493594895728,
        "lng": 107.39439808372491,
        "address": "内蒙古自治区/巴彦淖尔市",
        "code": "150800",
        "province": "150000",
        "city": ""
      },
      {
        "index": 65,
        "name": "白城市",
        "shortName": "白城",
        "sortLetters": "B",
        "pinyin": "Baicheng",
        "lat": 45.62550435999602,
        "lng": 122.8455906084976,
        "address": "吉林省/白城市",
        "code": "220800",
        "province": "220000",
        "city": ""
      }
    ]
  },
  {
    "sortLetters": "C",
    "items": [
      {
        "index": 85,
        "name": "昌都市",
        "shortName": "昌都",
        "sortLetters": "C",
        "pinyin": "Changdu",
        "lat": 31.14734654932703,
        "lng": 97.17958359408598,
        "address": "西藏自治区/昌都市",
        "code": "540300",
        "province": "540000",
        "city": ""
      },
      {
        "index": 86,
        "name": "昌吉回族自治州",
        "shortName": "昌吉",
        "sortLetters": "C",
        "pinyin": "Changji",
        "lat": 44.01685415991987,
        "lng": 87.3150016244744,
        "address": "新疆维吾尔自治区/昌吉回族自治州",
        "code": "652300",
        "province": "650000",
        "city": ""
      },
      {
        "index": 87,
        "name": "长治市",
        "shortName": "长治",
        "sortLetters": "C",
        "pinyin": "Changzhi",
        "lat": 36.2012683721548,
        "lng": 113.12255886984902,
        "address": "山西省/长治市",
        "code": "140400",
        "province": "140000",
        "city": ""
      },
      {
        "index": 89,
        "name": "朝阳市",
        "shortName": "朝阳",
        "sortLetters": "C",
        "pinyin": "Chaoyang",
        "lat": 41.57982086475567,
        "lng": 120.45749949793277,
        "address": "辽宁省/朝阳市",
        "code": "211300",
        "province": "210000",
        "city": ""
      },
      {
        "index": 90,
        "name": "潮州市",
        "shortName": "潮州",
        "sortLetters": "C",
        "pinyin": "Chaozhou",
        "lat": 23.662623192615886,
        "lng": 116.62947017362819,
        "address": "广东省/潮州市",
        "code": "445100",
        "province": "440000",
        "city": ""
      },
      {
        "index": 91,
        "name": "承德市",
        "shortName": "承德",
        "sortLetters": "C",
        "pinyin": "Chengde",
        "lat": 40.95785601233803,
        "lng": 117.96939750996681,
        "address": "河北省/承德市",
        "code": "130800",
        "province": "130000",
        "city": ""
      },
      {
        "index": 92,
        "name": "郴州市",
        "shortName": "郴州",
        "sortLetters": "C",
        "pinyin": "Chenzhou",
        "lat": 25.776683273601865,
        "lng": 113.02146049909462,
        "address": "湖南省/郴州市",
        "code": "431000",
        "province": "430000",
        "city": ""
      },
      {
        "index": 93,
        "name": "赤峰市",
        "shortName": "赤峰",
        "sortLetters": "C",
        "pinyin": "Chifeng",
        "lat": 42.2616861034116,
        "lng": 118.8955203975195,
        "address": "内蒙古自治区/赤峰市",
        "code": "150400",
        "province": "150000",
        "city": ""
      },
      {
        "index": 94,
        "name": "池州市",
        "shortName": "池州",
        "sortLetters": "C",
        "pinyin": "Chizhou",
        "lat": 30.670883790764535,
        "lng": 117.49842096159624,
        "address": "安徽省/池州市",
        "code": "341700",
        "province": "340000",
        "city": ""
      },
      {
        "index": 95,
        "name": "崇左市",
        "shortName": "崇左",
        "sortLetters": "C",
        "pinyin": "Chongzuo",
        "lat": 22.383117234663302,
        "lng": 107.3715202061015,
        "address": "广西壮族自治区/崇左市",
        "code": "451400",
        "province": "450000",
        "city": ""
      },
      {
        "index": 96,
        "name": "楚雄彝族自治州",
        "shortName": "楚雄",
        "sortLetters": "C",
        "pinyin": "Chuxiong",
        "lat": 25.051773565340376,
        "lng": 101.53441248050268,
        "address": "云南省/楚雄彝族自治州",
        "code": "532300",
        "province": "530000",
        "city": ""
      },
      {
        "index": 97,
        "name": "滁州市",
        "shortName": "滁州",
        "sortLetters": "C",
        "pinyin": "Chuzhou",
        "lat": 32.26127087204081,
        "lng": 118.33940613596579,
        "address": "安徽省/滁州市",
        "code": "341100",
        "province": "340000",
        "city": ""
      },
      {
        "index": 4,
        "name": "长春市",
        "shortName": "长春",
        "sortLetters": "C",
        "pinyin": "Changchun",
        "lat": 43.82195350104314,
        "lng": 125.3306020759069,
        "address": "吉林省/长春市",
        "code": "220100",
        "province": "220000",
        "city": ""
      },
      {
        "index": 5,
        "name": "长沙市",
        "shortName": "长沙",
        "sortLetters": "C",
        "pinyin": "Changsha",
        "lat": 28.23488939994364,
        "lng": 112.94547319535287,
        "address": "湖南省/长沙市",
        "code": "430100",
        "province": "430000",
        "city": ""
      },
      {
        "index": 6,
        "name": "常州市",
        "shortName": "常州",
        "sortLetters": "C",
        "pinyin": "Changzhou",
        "lat": 31.815795653327836,
        "lng": 119.98148471327892,
        "address": "江苏省/常州市",
        "code": "320400",
        "province": "320000",
        "city": ""
      },
      {
        "index": 7,
        "name": "成都市",
        "shortName": "成都",
        "sortLetters": "C",
        "pinyin": "Chengdu",
        "lat": 30.655821878416408,
        "lng": 104.08153351042463,
        "address": "四川省/成都市",
        "code": "510100",
        "province": "510000",
        "city": ""
      },
      {
        "index": 83,
        "name": "沧州市",
        "shortName": "沧州",
        "sortLetters": "C",
        "pinyin": "Cangzhou",
        "lat": 38.310215141107044,
        "lng": 116.84558075595014,
        "address": "河北省/沧州市",
        "code": "130900",
        "province": "130000",
        "city": ""
      },
      {
        "index": 84,
        "name": "常德市",
        "shortName": "常德",
        "sortLetters": "C",
        "pinyin": "Changde",
        "lat": 29.037749999406877,
        "lng": 111.70545217995837,
        "address": "湖南省/常德市",
        "code": "430700",
        "province": "430000",
        "city": ""
      },
      {
        "index": 4,
        "name": "长春市",
        "shortName": "长春",
        "sortLetters": "C",
        "pinyin": "Changchun",
        "lat": 43.82195350104314,
        "lng": 125.3306020759069,
        "address": "吉林省/长春市",
        "code": "220100",
        "province": "220000",
        "city": ""
      }
    ]
  },
  {
    "sortLetters": "D",
    "items": [
      {
        "index": 9,
        "name": "东莞市",
        "shortName": "东莞",
        "sortLetters": "D",
        "pinyin": "Dongguan",
        "lat": 23.02730841164339,
        "lng": 113.75842045787648,
        "address": "广东省/东莞市",
        "code": "441900",
        "province": "440000",
        "city": ""
      },
      {
        "index": 99,
        "name": "丹东市",
        "shortName": "丹东",
        "sortLetters": "D",
        "pinyin": "Dandong",
        "lat": 40.00640870559368,
        "lng": 124.36154728159079,
        "address": "辽宁省/丹东市",
        "code": "210600",
        "province": "210000",
        "city": ""
      },
      {
        "index": 100,
        "name": "大庆市",
        "shortName": "大庆",
        "sortLetters": "D",
        "pinyin": "Daqing",
        "lat": 46.59363317672175,
        "lng": 125.10865763402039,
        "address": "黑龙江省/大庆市",
        "code": "230600",
        "province": "230000",
        "city": ""
      },
      {
        "index": 101,
        "name": "大同市",
        "shortName": "大同",
        "sortLetters": "D",
        "pinyin": "Datong",
        "lat": 40.0824687161612,
        "lng": 113.30643625858623,
        "address": "山西省/大同市",
        "code": "140200",
        "province": "140000",
        "city": ""
      },
      {
        "index": 102,
        "name": "大兴安岭地区",
        "shortName": "大兴安岭",
        "sortLetters": "D",
        "pinyin": "Daxinganling",
        "lat": 50.42002595502784,
        "lng": 124.15292785448057,
        "address": "黑龙江省/大兴安岭地区",
        "code": "232700",
        "province": "230000",
        "city": ""
      },
      {
        "index": 103,
        "name": "达州市",
        "shortName": "达州",
        "sortLetters": "D",
        "pinyin": "Dazhou",
        "lat": 31.214307723927455,
        "lng": 107.47459385897544,
        "address": "四川省/达州市",
        "code": "511700",
        "province": "510000",
        "city": ""
      },
      {
        "index": 104,
        "name": "德宏傣族景颇族自治州",
        "shortName": "德宏",
        "sortLetters": "D",
        "pinyin": "Dehong",
        "lat": 24.438010702758117,
        "lng": 98.59135935611411,
        "address": "云南省/德宏傣族景颇族自治州",
        "code": "533100",
        "province": "530000",
        "city": ""
      },
      {
        "index": 105,
        "name": "德阳市",
        "shortName": "德阳",
        "sortLetters": "D",
        "pinyin": "Deyang",
        "lat": 31.133115003656755,
        "lng": 104.40441936496448,
        "address": "四川省/德阳市",
        "code": "510600",
        "province": "510000",
        "city": ""
      },
      {
        "index": 106,
        "name": "德州市",
        "shortName": "德州",
        "sortLetters": "D",
        "pinyin": "Dezhou",
        "lat": 37.441308454576266,
        "lng": 116.36555674397471,
        "address": "山东省/德州市",
        "code": "371400",
        "province": "370000",
        "city": ""
      },
      {
        "index": 107,
        "name": "定西市",
        "shortName": "定西",
        "sortLetters": "D",
        "pinyin": "Dingxi",
        "lat": 35.586832926561875,
        "lng": 104.63242008306302,
        "address": "甘肃省/定西市",
        "code": "621100",
        "province": "620000",
        "city": ""
      },
      {
        "index": 108,
        "name": "迪庆藏族自治州",
        "shortName": "迪庆",
        "sortLetters": "D",
        "pinyin": "Diqing",
        "lat": 27.82518468364326,
        "lng": 99.70952999013957,
        "address": "云南省/迪庆藏族自治州",
        "code": "533400",
        "province": "530000",
        "city": ""
      },
      {
        "index": 109,
        "name": "东营市",
        "shortName": "东营",
        "sortLetters": "D",
        "pinyin": "Dongying",
        "lat": 37.43964182632334,
        "lng": 118.68138493513693,
        "address": "山东省/东营市",
        "code": "370500",
        "province": "370000",
        "city": ""
      },
      {
        "index": 8,
        "name": "大连市",
        "shortName": "大连",
        "sortLetters": "D",
        "pinyin": "Dalian",
        "lat": 38.9189536667856,
        "lng": 121.62163148459285,
        "address": "辽宁省/大连市",
        "code": "210200",
        "province": "210000",
        "city": ""
      },
      {
        "index": 8,
        "name": "大连市",
        "shortName": "大连",
        "sortLetters": "D",
        "pinyin": "Dalian",
        "lat": 38.9189536667856,
        "lng": 121.62163148459285,
        "address": "辽宁省/大连市",
        "code": "210200",
        "province": "210000",
        "city": ""
      },
      {
        "index": 99,
        "name": "丹东市",
        "shortName": "丹东",
        "sortLetters": "D",
        "pinyin": "Dandong",
        "lat": 40.00640870559368,
        "lng": 124.36154728159079,
        "address": "辽宁省/丹东市",
        "code": "210600",
        "province": "210000",
        "city": ""
      }
    ]
  },
  {
    "sortLetters": "E",
    "items": [
      {
        "index": 112,
        "name": "鄂州市",
        "shortName": "鄂州",
        "sortLetters": "E",
        "pinyin": "Ezhou",
        "lat": 30.39657217331699,
        "lng": 114.90160738827099,
        "address": "湖北省/鄂州市",
        "code": "420700",
        "province": "420000",
        "city": ""
      },
      {
        "index": 111,
        "name": "恩施土家族苗族自治州",
        "shortName": "恩施",
        "sortLetters": "E",
        "pinyin": "Enshi",
        "lat": 30.277939575301094,
        "lng": 109.49459261857503,
        "address": "湖北省/恩施土家族苗族自治州",
        "code": "422800",
        "province": "420000",
        "city": ""
      }
    ]
  },
  {
    "sortLetters": "F",
    "items": [
      {
        "index": 117,
        "name": "抚州市",
        "shortName": "抚州",
        "sortLetters": "F",
        "pinyin": "Fuzhou",
        "lat": 27.954892253419565,
        "lng": 116.36453876864373,
        "address": "江西省/抚州市",
        "code": "361000",
        "province": "360000",
        "city": ""
      },
      {
        "index": 11,
        "name": "福州市",
        "shortName": "福州",
        "sortLetters": "F",
        "pinyin": "Fuzhou",
        "lat": 26.080429420698078,
        "lng": 119.30346983854001,
        "address": "福建省/福州市",
        "code": "350100",
        "province": "350000",
        "city": ""
      },
      {
        "index": 113,
        "name": "防城港市",
        "shortName": "防城港",
        "sortLetters": "F",
        "pinyin": "Fangchenggang",
        "lat": 21.6930052899694,
        "lng": 108.360418838298,
        "address": "广西壮族自治区/防城港市",
        "code": "450600",
        "province": "450000",
        "city": ""
      },
      {
        "index": 114,
        "name": "抚顺市",
        "shortName": "抚顺",
        "sortLetters": "F",
        "pinyin": "Fushun",
        "lat": 41.88596959305694,
        "lng": 123.9643746156145,
        "address": "辽宁省/抚顺市",
        "code": "210400",
        "province": "210000",
        "city": ""
      },
      {
        "index": 115,
        "name": "阜新市",
        "shortName": "阜新",
        "sortLetters": "F",
        "pinyin": "Fuxin",
        "lat": 42.02802190131842,
        "lng": 121.67640799865809,
        "address": "辽宁省/阜新市",
        "code": "210900",
        "province": "210000",
        "city": ""
      },
      {
        "index": 116,
        "name": "阜阳市",
        "shortName": "阜阳",
        "sortLetters": "F",
        "pinyin": "Fuyang",
        "lat": 32.89606099485221,
        "lng": 115.82043612491321,
        "address": "安徽省/阜阳市",
        "code": "341200",
        "province": "340000",
        "city": ""
      },
      {
        "index": 11,
        "name": "福州市",
        "shortName": "福州",
        "sortLetters": "F",
        "pinyin": "Fuzhou",
        "lat": 26.080429420698078,
        "lng": 119.30346983854001,
        "address": "福建省/福州市",
        "code": "350100",
        "province": "350000",
        "city": ""
      }
    ]
  },
  {
    "sortLetters": "G",
    "items": [
      {
        "index": 121,
        "name": "广安市",
        "shortName": "广安",
        "sortLetters": "G",
        "pinyin": "Guangan",
        "lat": 30.461746110678995,
        "lng": 106.63955268233484,
        "address": "四川省/广安市",
        "code": "511600",
        "province": "510000",
        "city": ""
      },
      {
        "index": 122,
        "name": "广元市",
        "shortName": "广元",
        "sortLetters": "G",
        "pinyin": "Guangyuan",
        "lat": 32.44161630531542,
        "lng": 105.85042318166482,
        "address": "四川省/广元市",
        "code": "510800",
        "province": "510000",
        "city": ""
      },
      {
        "index": 123,
        "name": "贵港市",
        "shortName": "贵港",
        "sortLetters": "G",
        "pinyin": "Guigang",
        "lat": 23.117448382037534,
        "lng": 109.60552031033306,
        "address": "广西壮族自治区/贵港市",
        "code": "450800",
        "province": "450000",
        "city": ""
      },
      {
        "index": 124,
        "name": "桂林市",
        "shortName": "桂林",
        "sortLetters": "G",
        "pinyin": "Guilin",
        "lat": 25.242885724872647,
        "lng": 110.20354537457943,
        "address": "广西壮族自治区/桂林市",
        "code": "450300",
        "province": "450000",
        "city": ""
      },
      {
        "index": 125,
        "name": "果洛藏族自治州",
        "shortName": "果洛",
        "sortLetters": "G",
        "pinyin": "Guoluo",
        "lat": 34.4771938664709,
        "lng": 100.25159197879555,
        "address": "青海省/果洛藏族自治州",
        "code": "632600",
        "province": "630000",
        "city": ""
      },
      {
        "index": 126,
        "name": "固原市",
        "shortName": "固原",
        "sortLetters": "G",
        "pinyin": "Guyuan",
        "lat": 36.02161725801098,
        "lng": 106.24857742607188,
        "address": "宁夏回族自治区/固原市",
        "code": "640400",
        "province": "640000",
        "city": ""
      },
      {
        "index": 119,
        "name": "赣州市",
        "shortName": "赣州",
        "sortLetters": "G",
        "pinyin": "Ganzhou",
        "lat": 25.835176103497655,
        "lng": 114.9405033729825,
        "address": "江西省/赣州市",
        "code": "360700",
        "province": "360000",
        "city": ""
      },
      {
        "index": 12,
        "name": "广州市",
        "shortName": "广州",
        "sortLetters": "G",
        "pinyin": "Guangzhou",
        "lat": 23.135336306695006,
        "lng": 113.27143134445974,
        "address": "广东省/广州市",
        "code": "440100",
        "province": "440000",
        "city": ""
      },
      {
        "index": 13,
        "name": "贵阳市",
        "shortName": "贵阳",
        "sortLetters": "G",
        "pinyin": "Guiyang",
        "lat": 26.653324822309752,
        "lng": 106.63657676352776,
        "address": "贵州省/贵阳市",
        "code": "520100",
        "province": "520000",
        "city": ""
      },
      {
        "index": 120,
        "name": "甘孜藏族自治州",
        "shortName": "甘孜",
        "sortLetters": "G",
        "pinyin": "Ganzi",
        "lat": 30.05527884351838,
        "lng": 101.96854674579022,
        "address": "四川省/甘孜藏族自治州",
        "code": "513300",
        "province": "510000",
        "city": ""
      }
    ]
  },
  {
    "sortLetters": "H",
    "items": [
      {
        "index": 14,
        "name": "哈尔滨市",
        "shortName": "哈尔滨",
        "sortLetters": "H",
        "pinyin": "Haerbin",
        "lat": 45.808825827952184,
        "lng": 126.54161509031663,
        "address": "黑龙江省/哈尔滨市",
        "code": "230100",
        "province": "230000",
        "city": ""
      },
      {
        "index": 15,
        "name": "海口市",
        "shortName": "海口",
        "sortLetters": "H",
        "pinyin": "Haikou",
        "lat": 20.04404943925674,
        "lng": 110.32552547126409,
        "address": "海南省/海口市",
        "code": "460100",
        "province": "460000",
        "city": ""
      },
      {
        "index": 16,
        "name": "邯郸市",
        "shortName": "邯郸",
        "sortLetters": "H",
        "pinyin": "Handan",
        "lat": 36.631262731204046,
        "lng": 114.5456282282352,
        "address": "河北省/邯郸市",
        "code": "130400",
        "province": "130000",
        "city": ""
      },
      {
        "index": 17,
        "name": "杭州市",
        "shortName": "杭州",
        "sortLetters": "H",
        "pinyin": "Hangzhou",
        "lat": 30.25308298169347,
        "lng": 120.21551180372168,
        "address": "浙江省/杭州市",
        "code": "330100",
        "province": "330000",
        "city": ""
      },
      {
        "index": 18,
        "name": "合肥市",
        "shortName": "合肥",
        "sortLetters": "H",
        "pinyin": "Hefei",
        "lat": 31.826577833686887,
        "lng": 117.23344266497664,
        "address": "安徽省/合肥市",
        "code": "340100",
        "province": "340000",
        "city": ""
      },
      {
        "index": 127,
        "name": "海北藏族自治州",
        "shortName": "海北",
        "sortLetters": "H",
        "pinyin": "Haibei",
        "lat": 36.96066282412982,
        "lng": 100.90743432145598,
        "address": "青海省/海北藏族自治州",
        "code": "632200",
        "province": "630000",
        "city": ""
      },
      {
        "index": 128,
        "name": "海东市",
        "shortName": "海东",
        "sortLetters": "H",
        "pinyin": "Haidong",
        "lat": 36.508511080941304,
        "lng": 102.1104440722824,
        "address": "青海省/海东市",
        "code": "630200",
        "province": "630000",
        "city": ""
      },
      {
        "index": 129,
        "name": "海南藏族自治州",
        "shortName": "海南",
        "sortLetters": "H",
        "pinyin": "Hainan",
        "lat": 36.2921024798988,
        "lng": 100.62662114445924,
        "address": "青海省/海南藏族自治州",
        "code": "632500",
        "province": "630000",
        "city": ""
      },
      {
        "index": 130,
        "name": "海西蒙古族藏族自治州",
        "shortName": "海西",
        "sortLetters": "H",
        "pinyin": "Haixi",
        "lat": 37.38275046252745,
        "lng": 97.37629911601906,
        "address": "青海省/海西蒙古族藏族自治州",
        "code": "632800",
        "province": "630000",
        "city": ""
      },
      {
        "index": 131,
        "name": "哈密市",
        "shortName": "哈密",
        "sortLetters": "H",
        "pinyin": "Hami",
        "lat": 42.82582436811265,
        "lng": 93.52121554028504,
        "address": "新疆维吾尔自治区/哈密市",
        "code": "650500",
        "province": "650000",
        "city": ""
      },
      {
        "index": 132,
        "name": "汉中市",
        "shortName": "汉中",
        "sortLetters": "H",
        "pinyin": "Hanzhong",
        "lat": 33.073799907833795,
        "lng": 107.02943020926463,
        "address": "陕西省/汉中市",
        "code": "610700",
        "province": "610000",
        "city": ""
      },
      {
        "index": 133,
        "name": "鹤壁市",
        "shortName": "鹤壁",
        "sortLetters": "H",
        "pinyin": "Hebi",
        "lat": 35.7523574114,
        "lng": 114.30359364247649,
        "address": "河南省/鹤壁市",
        "code": "410600",
        "province": "410000",
        "city": ""
      },
      {
        "index": 134,
        "name": "河池市",
        "shortName": "河池",
        "sortLetters": "H",
        "pinyin": "Hechi",
        "lat": 24.698911731272894,
        "lng": 108.09149994498661,
        "address": "广西壮族自治区/河池市",
        "code": "451200",
        "province": "450000",
        "city": ""
      },
      {
        "index": 135,
        "name": "鹤岗市",
        "shortName": "鹤岗",
        "sortLetters": "H",
        "pinyin": "Hegang",
        "lat": 47.35605615768509,
        "lng": 130.3044328986694,
        "address": "黑龙江省/鹤岗市",
        "code": "230400",
        "province": "230000",
        "city": ""
      },
      {
        "index": 136,
        "name": "黑河市",
        "shortName": "黑河",
        "sortLetters": "H",
        "pinyin": "Heihe",
        "lat": 50.25127231175015,
        "lng": 127.53548988621854,
        "address": "黑龙江省/黑河市",
        "code": "231100",
        "province": "230000",
        "city": ""
      },
      {
        "index": 137,
        "name": "衡水市",
        "shortName": "衡水",
        "sortLetters": "H",
        "pinyin": "Hengshui",
        "lat": 37.745191408077424,
        "lng": 115.6754061376161,
        "address": "河北省/衡水市",
        "code": "131100",
        "province": "130000",
        "city": ""
      },
      {
        "index": 138,
        "name": "衡阳市",
        "shortName": "衡阳",
        "sortLetters": "H",
        "pinyin": "Hengyang",
        "lat": 26.899576139189122,
        "lng": 112.57844721325992,
        "address": "湖南省/衡阳市",
        "code": "430400",
        "province": "430000",
        "city": ""
      },
      {
        "index": 139,
        "name": "和田地区",
        "shortName": "和田地",
        "sortLetters": "H",
        "pinyin": "Hetiandi",
        "lat": 37.12044646304192,
        "lng": 79.9285070635119,
        "address": "新疆维吾尔自治区/和田地区",
        "code": "653200",
        "province": "650000",
        "city": ""
      },
      {
        "index": 140,
        "name": "河源市",
        "shortName": "河源",
        "sortLetters": "H",
        "pinyin": "Heyuan",
        "lat": 23.749684370959752,
        "lng": 114.70744627290641,
        "address": "广东省/河源市",
        "code": "441600",
        "province": "440000",
        "city": ""
      },
      {
        "index": 141,
        "name": "菏泽市",
        "shortName": "菏泽",
        "sortLetters": "H",
        "pinyin": "Heze",
        "lat": 35.23940742476551,
        "lng": 115.48754503343376,
        "address": "山东省/菏泽市",
        "code": "371700",
        "province": "370000",
        "city": ""
      },
      {
        "index": 142,
        "name": "贺州市",
        "shortName": "贺州",
        "sortLetters": "H",
        "pinyin": "Hezhou",
        "lat": 24.409450902865487,
        "lng": 111.57352631416218,
        "address": "广西壮族自治区/贺州市",
        "code": "451100",
        "province": "450000",
        "city": ""
      },
      {
        "index": 143,
        "name": "红河哈尼族彝族自治州",
        "shortName": "红河",
        "sortLetters": "H",
        "pinyin": "Honghe",
        "lat": 23.37448873836479,
        "lng": 102.42755057757,
        "address": "云南省/红河哈尼族彝族自治州",
        "code": "532500",
        "province": "530000",
        "city": ""
      },
      {
        "index": 144,
        "name": "淮安市",
        "shortName": "淮安",
        "sortLetters": "H",
        "pinyin": "Huaian",
        "lat": 33.61629530103313,
        "lng": 119.02148367070623,
        "address": "江苏省/淮安市",
        "code": "320800",
        "province": "320000",
        "city": ""
      },
      {
        "index": 145,
        "name": "淮北市",
        "shortName": "淮北",
        "sortLetters": "H",
        "pinyin": "Huaibei",
        "lat": 33.96165630027632,
        "lng": 116.8045372670298,
        "address": "安徽省/淮北市",
        "code": "340600",
        "province": "340000",
        "city": ""
      },
      {
        "index": 146,
        "name": "怀化市",
        "shortName": "怀化",
        "sortLetters": "H",
        "pinyin": "Huaihua",
        "lat": 27.575160902978517,
        "lng": 110.00851426537254,
        "address": "湖南省/怀化市",
        "code": "431200",
        "province": "430000",
        "city": ""
      },
      {
        "index": 147,
        "name": "淮南市",
        "shortName": "淮南",
        "sortLetters": "H",
        "pinyin": "Huainan",
        "lat": 32.63184739905333,
        "lng": 117.00638885071616,
        "address": "安徽省/淮南市",
        "code": "340400",
        "province": "340000",
        "city": ""
      },
      {
        "index": 148,
        "name": "黄冈市",
        "shortName": "黄冈",
        "sortLetters": "H",
        "pinyin": "Huanggang",
        "lat": 30.4593588576181,
        "lng": 114.87849048410779,
        "address": "湖北省/黄冈市",
        "code": "421100",
        "province": "420000",
        "city": ""
      },
      {
        "index": 149,
        "name": "黄南藏族自治州",
        "shortName": "黄南",
        "sortLetters": "H",
        "pinyin": "Huangnan",
        "lat": 35.525804586515534,
        "lng": 102.02242827807585,
        "address": "青海省/黄南藏族自治州",
        "code": "632300",
        "province": "630000",
        "city": ""
      },
      {
        "index": 150,
        "name": "黄山市",
        "shortName": "黄山",
        "sortLetters": "H",
        "pinyin": "Huangshan",
        "lat": 29.721889786591692,
        "lng": 118.34543725314781,
        "address": "安徽省/黄山市",
        "code": "341000",
        "province": "340000",
        "city": ""
      },
      {
        "index": 151,
        "name": "黄石市",
        "shortName": "黄石",
        "sortLetters": "H",
        "pinyin": "Huangshi",
        "lat": 30.205207848941598,
        "lng": 115.04553290894361,
        "address": "湖北省/黄石市",
        "code": "420200",
        "province": "420000",
        "city": ""
      },
      {
        "index": 152,
        "name": "呼和浩特市",
        "shortName": "呼和浩特",
        "sortLetters": "H",
        "pinyin": "Huhehaote",
        "lat": 40.84842299711348,
        "lng": 111.75550856170946,
        "address": "内蒙古自治区/呼和浩特市",
        "code": "150100",
        "province": "150000",
        "city": ""
      },
      {
        "index": 153,
        "name": "葫芦岛市",
        "shortName": "葫芦岛",
        "sortLetters": "H",
        "pinyin": "Huludao",
        "lat": 40.71736443636189,
        "lng": 120.8433983399283,
        "address": "辽宁省/葫芦岛市",
        "code": "211400",
        "province": "210000",
        "city": ""
      },
      {
        "index": 154,
        "name": "呼伦贝尔市",
        "shortName": "呼伦贝尔",
        "sortLetters": "H",
        "pinyin": "Hulunbeier",
        "lat": 49.21844647556481,
        "lng": 119.77237049946636,
        "address": "内蒙古自治区/呼伦贝尔市",
        "code": "150700",
        "province": "150000",
        "city": ""
      },
      {
        "index": 155,
        "name": "湖州市",
        "shortName": "湖州",
        "sortLetters": "H",
        "pinyin": "Huzhou",
        "lat": 30.898963937294184,
        "lng": 120.09451660915789,
        "address": "浙江省/湖州市",
        "code": "330500",
        "province": "330000",
        "city": ""
      },
      {
        "index": 14,
        "name": "哈尔滨市",
        "shortName": "哈尔滨",
        "sortLetters": "H",
        "pinyin": "Haerbin",
        "lat": 45.808825827952184,
        "lng": 126.54161509031663,
        "address": "黑龙江省/哈尔滨市",
        "code": "230100",
        "province": "230000",
        "city": ""
      }
    ]
  },
  {
    "sortLetters": "J",
    "items": [
      {
        "index": 21,
        "name": "嘉兴市",
        "shortName": "嘉兴",
        "sortLetters": "J",
        "pinyin": "Jiaxing",
        "lat": 30.750974830920143,
        "lng": 120.76355182586005,
        "address": "浙江省/嘉兴市",
        "code": "330400",
        "province": "330000",
        "city": ""
      },
      {
        "index": 22,
        "name": "吉林市",
        "shortName": "吉林",
        "sortLetters": "J",
        "pinyin": "Jilin",
        "lat": 43.84356783457924,
        "lng": 126.55563450495482,
        "address": "吉林省/吉林市",
        "code": "220200",
        "province": "220000",
        "city": ""
      },
      {
        "index": 23,
        "name": "济南市",
        "shortName": "济南",
        "sortLetters": "J",
        "pinyin": "Jinan",
        "lat": 36.65655420178723,
        "lng": 117.12639941261048,
        "address": "山东省/济南市",
        "code": "370100",
        "province": "370000",
        "city": ""
      },
      {
        "index": 156,
        "name": "佳木斯市",
        "shortName": "佳木斯",
        "sortLetters": "J",
        "pinyin": "Jiamusi",
        "lat": 46.80568999085779,
        "lng": 130.327359092573,
        "address": "黑龙江省/佳木斯市",
        "code": "230800",
        "province": "230000",
        "city": ""
      },
      {
        "index": 157,
        "name": "江门市",
        "shortName": "江门",
        "sortLetters": "J",
        "pinyin": "Jiangmen",
        "lat": 22.584603880965,
        "lng": 113.08855619524043,
        "address": "广东省/江门市",
        "code": "440700",
        "province": "440000",
        "city": ""
      },
      {
        "index": 158,
        "name": "吉安市",
        "shortName": "吉安",
        "sortLetters": "J",
        "pinyin": "Jian",
        "lat": 27.119726826070448,
        "lng": 115.00051072001253,
        "address": "江西省/吉安市",
        "code": "360800",
        "province": "360000",
        "city": ""
      },
      {
        "index": 159,
        "name": "嘉峪关市",
        "shortName": "嘉峪关",
        "sortLetters": "J",
        "pinyin": "Jiayuguan",
        "lat": 39.77796014739059,
        "lng": 98.29620384300111,
        "address": "甘肃省/嘉峪关市",
        "code": "620200",
        "province": "620000",
        "city": ""
      },
      {
        "index": 160,
        "name": "揭阳市",
        "shortName": "揭阳",
        "sortLetters": "J",
        "pinyin": "Jieyang",
        "lat": 23.555740488275585,
        "lng": 116.37851218033846,
        "address": "广东省/揭阳市",
        "code": "445200",
        "province": "440000",
        "city": ""
      },
      {
        "index": 161,
        "name": "金昌市",
        "shortName": "金昌",
        "sortLetters": "J",
        "pinyin": "Jinchang",
        "lat": 38.52582009209263,
        "lng": 102.19460568669837,
        "address": "甘肃省/金昌市",
        "code": "620300",
        "province": "620000",
        "city": ""
      },
      {
        "index": 162,
        "name": "晋城市",
        "shortName": "晋城",
        "sortLetters": "J",
        "pinyin": "Jincheng",
        "lat": 35.49628458647257,
        "lng": 112.85857823132879,
        "address": "山西省/晋城市",
        "code": "140500",
        "province": "140000",
        "city": ""
      },
      {
        "index": 163,
        "name": "景德镇市",
        "shortName": "景德镇",
        "sortLetters": "J",
        "pinyin": "Jingdezhen",
        "lat": 29.274247711040953,
        "lng": 117.18457644638579,
        "address": "江西省/景德镇市",
        "code": "360200",
        "province": "360000",
        "city": ""
      },
      {
        "index": 164,
        "name": "荆门市",
        "shortName": "荆门",
        "sortLetters": "J",
        "pinyin": "Jingmen",
        "lat": 31.041732575569622,
        "lng": 112.20639298023002,
        "address": "湖北省/荆门市",
        "code": "420800",
        "province": "420000",
        "city": ""
      },
      {
        "index": 165,
        "name": "荆州市",
        "shortName": "荆州",
        "sortLetters": "J",
        "pinyin": "Jingzhou",
        "lat": 30.340842107742912,
        "lng": 112.24552262926137,
        "address": "湖北省/荆州市",
        "code": "421000",
        "province": "420000",
        "city": ""
      },
      {
        "index": 166,
        "name": "金华市",
        "shortName": "金华",
        "sortLetters": "J",
        "pinyin": "Jinhua",
        "lat": 29.084639385513697,
        "lng": 119.65343619052916,
        "address": "浙江省/金华市",
        "code": "330700",
        "province": "330000",
        "city": ""
      },
      {
        "index": 167,
        "name": "济宁市",
        "shortName": "济宁",
        "sortLetters": "J",
        "pinyin": "Jining",
        "lat": 35.420177394529645,
        "lng": 116.59361234853988,
        "address": "山东省/济宁市",
        "code": "370800",
        "province": "370000",
        "city": ""
      },
      {
        "index": 168,
        "name": "晋中市",
        "shortName": "晋中",
        "sortLetters": "J",
        "pinyin": "Jinzhong",
        "lat": 37.69283940975972,
        "lng": 112.75959475565928,
        "address": "山西省/晋中市",
        "code": "140700",
        "province": "140000",
        "city": ""
      },
      {
        "index": 169,
        "name": "锦州市",
        "shortName": "锦州",
        "sortLetters": "J",
        "pinyin": "Jinzhou",
        "lat": 41.10093149946208,
        "lng": 121.13259630055518,
        "address": "辽宁省/锦州市",
        "code": "210700",
        "province": "210000",
        "city": ""
      },
      {
        "index": 170,
        "name": "九江市",
        "shortName": "九江",
        "sortLetters": "J",
        "pinyin": "Jiujiang",
        "lat": 29.711340559079343,
        "lng": 116.00753491163063,
        "address": "江西省/九江市",
        "code": "360400",
        "province": "360000",
        "city": ""
      },
      {
        "index": 171,
        "name": "酒泉市",
        "shortName": "酒泉",
        "sortLetters": "J",
        "pinyin": "Jiuquan",
        "lat": 39.73846908071564,
        "lng": 98.50068521606795,
        "address": "甘肃省/酒泉市",
        "code": "620900",
        "province": "620000",
        "city": ""
      },
      {
        "index": 172,
        "name": "鸡西市",
        "shortName": "鸡西",
        "sortLetters": "J",
        "pinyin": "Jixi",
        "lat": 45.300872317823895,
        "lng": 130.97561865876668,
        "address": "黑龙江省/鸡西市",
        "code": "230300",
        "province": "230000",
        "city": ""
      },
      {
        "index": 513,
        "name": "吉安市",
        "shortName": "吉安",
        "sortLetters": "J",
        "pinyin": "Jian",
        "lat": 27.119726826070448,
        "lng": 115.00051072001253,
        "address": "江西省/吉安市",
        "code": "360800",
        "province": "360000",
        "city": ""
      },
      {
        "index": 544,
        "name": "九江市",
        "shortName": "九江",
        "sortLetters": "J",
        "pinyin": "Jiujiang",
        "lat": 29.711340559079343,
        "lng": 116.00753491163063,
        "address": "江西省/九江市",
        "code": "360400",
        "province": "360000",
        "city": ""
      },
      {
        "index": 21,
        "name": "嘉兴市",
        "shortName": "嘉兴",
        "sortLetters": "J",
        "pinyin": "Jiaxing",
        "lat": 30.750974830920143,
        "lng": 120.76355182586005,
        "address": "浙江省/嘉兴市",
        "code": "330400",
        "province": "330000",
        "city": ""
      },
      {
        "index": 20,
        "name": "焦作市",
        "shortName": "焦作",
        "sortLetters": "J",
        "pinyin": "Jiaozuo",
        "lat": 35.22096325403899,
        "lng": 113.24854783457334,
        "address": "河南省/焦作市",
        "code": "410800",
        "province": "410000",
        "city": ""
      }
    ]
  },
  {
    "sortLetters": "K",
    "items": [
      {
        "index": 176,
        "name": "克孜勒苏柯尔克孜自治州",
        "shortName": "克孜勒",
        "sortLetters": "K",
        "pinyin": "Kezile",
        "lat": 39.72047120487073,
        "lng": 76.17430867621205,
        "address": "新疆维吾尔自治区/克孜勒苏柯尔克孜自治州",
        "code": "653000",
        "province": "650000",
        "city": ""
      },
      {
        "index": 24,
        "name": "昆明市",
        "shortName": "昆明",
        "sortLetters": "K",
        "pinyin": "Kunming",
        "lat": 24.873998150044006,
        "lng": 102.85244836500482,
        "address": "云南省/昆明市",
        "code": "530100",
        "province": "530000",
        "city": ""
      },
      {
        "index": 173,
        "name": "开封市",
        "shortName": "开封",
        "sortLetters": "K",
        "pinyin": "Kaifeng",
        "lat": 34.80288581121172,
        "lng": 114.31459258497121,
        "address": "河南省/开封市",
        "code": "410200",
        "province": "410000",
        "city": ""
      },
      {
        "index": 174,
        "name": "喀什地区",
        "shortName": "喀什地",
        "sortLetters": "K",
        "pinyin": "Kashidi",
        "lat": 39.47609674864479,
        "lng": 75.99639055639747,
        "address": "新疆维吾尔自治区/喀什地区",
        "code": "653100",
        "province": "650000",
        "city": ""
      },
      {
        "index": 176,
        "name": "克孜勒苏柯尔克孜自治州",
        "shortName": "克孜勒",
        "sortLetters": "K",
        "pinyin": "Kezile",
        "lat": 39.72047120487073,
        "lng": 76.17430867621205,
        "address": "新疆维吾尔自治区/克孜勒苏柯尔克孜自治州",
        "code": "653000",
        "province": "650000",
        "city": ""
      }
    ]
  },
  {
    "sortLetters": "L",
    "items": [
      {
        "index": 26,
        "name": "柳州市",
        "shortName": "柳州",
        "sortLetters": "L",
        "pinyin": "Liuzhou",
        "lat": 24.331961386852413,
        "lng": 109.43442194634564,
        "address": "广西壮族自治区/柳州市",
        "code": "450200",
        "province": "450000",
        "city": ""
      },
      {
        "index": 27,
        "name": "洛阳市",
        "shortName": "洛阳",
        "sortLetters": "L",
        "pinyin": "Luoyang",
        "lat": 34.62426277921943,
        "lng": 112.4594212983115,
        "address": "河南省/洛阳市",
        "code": "410300",
        "province": "410000",
        "city": ""
      },
      {
        "index": 199,
        "name": "漯河市",
        "shortName": "漯河",
        "sortLetters": "L",
        "pinyin": "Luohe",
        "lat": 33.5877107071022,
        "lng": 114.02342077764726,
        "address": "河南省/漯河市",
        "code": "411100",
        "province": "410000",
        "city": ""
      },
      {
        "index": 177,
        "name": "来宾市",
        "shortName": "来宾",
        "sortLetters": "L",
        "pinyin": "Laibin",
        "lat": 23.75654676260728,
        "lng": 109.22745819590091,
        "address": "广西壮族自治区/来宾市",
        "code": "451300",
        "province": "450000",
        "city": ""
      },
      {
        "index": 200,
        "name": "泸州市",
        "shortName": "泸州",
        "sortLetters": "L",
        "pinyin": "Luzhou",
        "lat": 28.87766830360723,
        "lng": 105.4485240693266,
        "address": "四川省/泸州市",
        "code": "510500",
        "province": "510000",
        "city": ""
      },
      {
        "index": 25,
        "name": "兰州市",
        "shortName": "兰州",
        "sortLetters": "L",
        "pinyin": "Lanzhou",
        "lat": 36.067234693545565,
        "lng": 103.84052119633628,
        "address": "甘肃省/兰州市",
        "code": "620100",
        "province": "620000",
        "city": ""
      },
      {
        "index": 179,
        "name": "廊坊市",
        "shortName": "廊坊",
        "sortLetters": "L",
        "pinyin": "Langfang",
        "lat": 39.54336666275853,
        "lng": 116.69058173342549,
        "address": "河北省/廊坊市",
        "code": "131000",
        "province": "130000",
        "city": ""
      },
      {
        "index": 180,
        "name": "拉萨市",
        "shortName": "拉萨",
        "sortLetters": "L",
        "pinyin": "Lasa",
        "lat": 29.65004027476773,
        "lng": 91.12082391546393,
        "address": "西藏自治区/拉萨市",
        "code": "540100",
        "province": "540000",
        "city": ""
      },
      {
        "index": 181,
        "name": "乐山市",
        "shortName": "乐山",
        "sortLetters": "L",
        "pinyin": "Leshan",
        "lat": 29.55794071745811,
        "lng": 103.7725376036347,
        "address": "四川省/乐山市",
        "code": "511100",
        "province": "510000",
        "city": ""
      },
      {
        "index": 182,
        "name": "凉山彝族自治州",
        "shortName": "凉山",
        "sortLetters": "L",
        "pinyin": "Liangshan",
        "lat": 27.88775230036972,
        "lng": 102.2735026809702,
        "address": "四川省/凉山彝族自治州",
        "code": "513400",
        "province": "510000",
        "city": ""
      },
      {
        "index": 183,
        "name": "连云港市",
        "shortName": "连云港",
        "sortLetters": "L",
        "pinyin": "Lianyungang",
        "lat": 34.60224952526725,
        "lng": 119.22862133316607,
        "address": "江苏省/连云港市",
        "code": "320700",
        "province": "320000",
        "city": ""
      },
      {
        "index": 184,
        "name": "聊城市",
        "shortName": "聊城",
        "sortLetters": "L",
        "pinyin": "Liaocheng",
        "lat": 36.46275818769411,
        "lng": 115.99158784830443,
        "address": "山东省/聊城市",
        "code": "371500",
        "province": "370000",
        "city": ""
      },
      {
        "index": 185,
        "name": "辽阳市",
        "shortName": "辽阳",
        "sortLetters": "L",
        "pinyin": "Liaoyang",
        "lat": 41.27416129045421,
        "lng": 123.24336640651318,
        "address": "辽宁省/辽阳市",
        "code": "211000",
        "province": "210000",
        "city": ""
      },
      {
        "index": 186,
        "name": "辽源市",
        "shortName": "辽源",
        "sortLetters": "L",
        "pinyin": "Liaoyuan",
        "lat": 42.89405500574631,
        "lng": 125.15042516688747,
        "address": "吉林省/辽源市",
        "code": "220400",
        "province": "220000",
        "city": ""
      },
      {
        "index": 187,
        "name": "丽江市",
        "shortName": "丽江",
        "sortLetters": "L",
        "pinyin": "Lijiang",
        "lat": 26.860657438064884,
        "lng": 100.23246452903453,
        "address": "云南省/丽江市",
        "code": "530700",
        "province": "530000",
        "city": ""
      },
      {
        "index": 188,
        "name": "临沧市",
        "shortName": "临沧",
        "sortLetters": "L",
        "pinyin": "Lincang",
        "lat": 23.89046855627851,
        "lng": 100.09544042014869,
        "address": "云南省/临沧市",
        "code": "530900",
        "province": "530000",
        "city": ""
      },
      {
        "index": 189,
        "name": "临汾市",
        "shortName": "临汾",
        "sortLetters": "L",
        "pinyin": "Linfen",
        "lat": 36.093741895419726,
        "lng": 111.52553022403073,
        "address": "山西省/临汾市",
        "code": "141000",
        "province": "140000",
        "city": ""
      },
      {
        "index": 190,
        "name": "临夏回族自治州",
        "shortName": "临夏",
        "sortLetters": "L",
        "pinyin": "Linxia",
        "lat": 35.60989877268906,
        "lng": 103.24954917760394,
        "address": "甘肃省/临夏回族自治州",
        "code": "622900",
        "province": "620000",
        "city": ""
      },
      {
        "index": 191,
        "name": "临沂市",
        "shortName": "临沂",
        "sortLetters": "L",
        "pinyin": "Linyi",
        "lat": 35.11067124236514,
        "lng": 118.36353300501388,
        "address": "山东省/临沂市",
        "code": "371300",
        "province": "370000",
        "city": ""
      },
      {
        "index": 192,
        "name": "林芝市",
        "shortName": "林芝",
        "sortLetters": "L",
        "pinyin": "Linzhi",
        "lat": 29.654042176951524,
        "lng": 94.36805828713257,
        "address": "西藏自治区/林芝市",
        "code": "540400",
        "province": "540000",
        "city": ""
      },
      {
        "index": 193,
        "name": "丽水市",
        "shortName": "丽水",
        "sortLetters": "L",
        "pinyin": "Lishui",
        "lat": 28.473278180563412,
        "lng": 119.9295730584414,
        "address": "浙江省/丽水市",
        "code": "331100",
        "province": "330000",
        "city": ""
      },
      {
        "index": 194,
        "name": "六安市",
        "shortName": "六安",
        "sortLetters": "L",
        "pinyin": "Liuan",
        "lat": 31.741450815322555,
        "lng": 116.52640966418569,
        "address": "安徽省/六安市",
        "code": "341500",
        "province": "340000",
        "city": ""
      },
      {
        "index": 195,
        "name": "六盘水市",
        "shortName": "六盘水",
        "sortLetters": "L",
        "pinyin": "Liupanshui",
        "lat": 26.598833108257494,
        "lng": 104.8375546023468,
        "address": "贵州省/六盘水市",
        "code": "520200",
        "province": "520000",
        "city": ""
      },
      {
        "index": 201,
        "name": "吕梁市",
        "shortName": "吕梁",
        "sortLetters": "L",
        "pinyin": "Lvliang",
        "lat": 37.524497749577115,
        "lng": 111.15044967529185,
        "address": "山西省/吕梁市",
        "code": "141100",
        "province": "140000",
        "city": ""
      },
      {
        "index": 196,
        "name": "陇南市",
        "shortName": "陇南",
        "sortLetters": "L",
        "pinyin": "Longnan",
        "lat": 33.40662022995126,
        "lng": 104.92857497071192,
        "address": "甘肃省/陇南市",
        "code": "621200",
        "province": "620000",
        "city": ""
      },
      {
        "index": 197,
        "name": "龙岩市",
        "shortName": "龙岩",
        "sortLetters": "L",
        "pinyin": "Longyan",
        "lat": 25.081219844871676,
        "lng": 117.02344756677536,
        "address": "福建省/龙岩市",
        "code": "350800",
        "province": "350000",
        "city": ""
      },
      {
        "index": 196,
        "name": "陇南市",
        "shortName": "陇南",
        "sortLetters": "L",
        "pinyin": "Longnan",
        "lat": 33.40662022995126,
        "lng": 104.92857497071192,
        "address": "甘肃省/陇南市",
        "code": "621200",
        "province": "620000",
        "city": ""
      },
      {
        "index": 26,
        "name": "柳州市",
        "shortName": "柳州",
        "sortLetters": "L",
        "pinyin": "Liuzhou",
        "lat": 24.331961386852413,
        "lng": 109.43442194634564,
        "address": "广西壮族自治区/柳州市",
        "code": "450200",
        "province": "450000",
        "city": ""
      }
    ]
  },
  {
    "sortLetters": "M",
    "items": [
      {
        "index": 204,
        "name": "眉山市",
        "shortName": "眉山",
        "sortLetters": "M",
        "pinyin": "Meishan",
        "lat": 30.082526119421058,
        "lng": 103.85656331579456,
        "address": "四川省/眉山市",
        "code": "511400",
        "province": "510000",
        "city": ""
      },
      {
        "index": 205,
        "name": "梅州市",
        "shortName": "梅州",
        "sortLetters": "M",
        "pinyin": "Meizhou",
        "lat": 24.294177532206206,
        "lng": 116.12953737612247,
        "address": "广东省/梅州市",
        "code": "441400",
        "province": "440000",
        "city": ""
      },
      {
        "index": 206,
        "name": "绵阳市",
        "shortName": "绵阳",
        "sortLetters": "M",
        "pinyin": "Mianyang",
        "lat": 31.473663048745863,
        "lng": 104.6855618607612,
        "address": "四川省/绵阳市",
        "code": "510700",
        "province": "510000",
        "city": ""
      },
      {
        "index": 207,
        "name": "牡丹江市",
        "shortName": "牡丹江",
        "sortLetters": "M",
        "pinyin": "Mudanjiang",
        "lat": 44.55624570898632,
        "lng": 129.6395397783469,
        "address": "黑龙江省/牡丹江市",
        "code": "231000",
        "province": "230000",
        "city": ""
      },
      {
        "index": 203,
        "name": "茂名市",
        "shortName": "茂名",
        "sortLetters": "M",
        "pinyin": "Maoming",
        "lat": 21.669064031332095,
        "lng": 110.931542579969,
        "address": "广东省/茂名市",
        "code": "440900",
        "province": "440000",
        "city": ""
      }
    ]
  },
  {
    "sortLetters": "N",
    "items": [
      {
        "index": 28,
        "name": "南昌市",
        "shortName": "南昌",
        "sortLetters": "N",
        "pinyin": "Nanchang",
        "lat": 28.68945529506072,
        "lng": 115.86458944231661,
        "address": "江西省/南昌市",
        "code": "360100",
        "province": "360000",
        "city": ""
      },
      {
        "index": 29,
        "name": "南京市",
        "shortName": "南京",
        "sortLetters": "N",
        "pinyin": "Nanjing",
        "lat": 32.06465288561847,
        "lng": 118.80242172124585,
        "address": "江苏省/南京市",
        "code": "320100",
        "province": "320000",
        "city": ""
      },
      {
        "index": 30,
        "name": "南宁市",
        "shortName": "南宁",
        "sortLetters": "N",
        "pinyin": "Nanning",
        "lat": 22.822606601187154,
        "lng": 108.37345082581861,
        "address": "广西壮族自治区/南宁市",
        "code": "450100",
        "province": "450000",
        "city": ""
      },
      {
        "index": 31,
        "name": "南通市",
        "shortName": "南通",
        "sortLetters": "N",
        "pinyin": "Nantong",
        "lat": 31.98654943120089,
        "lng": 120.90159173866185,
        "address": "江苏省/南通市",
        "code": "320600",
        "province": "320000",
        "city": ""
      },
      {
        "index": 32,
        "name": "宁波市",
        "shortName": "宁波",
        "sortLetters": "N",
        "pinyin": "Ningbo",
        "lat": 29.866033045866054,
        "lng": 121.62857249434141,
        "address": "浙江省/宁波市",
        "code": "330200",
        "province": "330000",
        "city": ""
      },
      {
        "index": 213,
        "name": "宁德市",
        "shortName": "宁德",
        "sortLetters": "N",
        "pinyin": "Ningde",
        "lat": 26.672241711408567,
        "lng": 119.55451074542829,
        "address": "福建省/宁德市",
        "code": "350900",
        "province": "350000",
        "city": ""
      },
      {
        "index": 214,
        "name": "怒江傈僳族自治州",
        "shortName": "怒江",
        "sortLetters": "N",
        "pinyin": "Nujiang",
        "lat": 25.823707417657754,
        "lng": 98.8632883813579,
        "address": "云南省/怒江傈僳族自治州",
        "code": "533300",
        "province": "530000",
        "city": ""
      },
      {
        "index": 211,
        "name": "那曲市",
        "shortName": "那曲",
        "sortLetters": "N",
        "pinyin": "Naqu",
        "lat": 31.482438388454657,
        "lng": 92.0573384981749,
        "address": "西藏自治区/那曲市",
        "code": "540600",
        "province": "540000",
        "city": ""
      },
      {
        "index": 212,
        "name": "内江市",
        "shortName": "内江",
        "sortLetters": "N",
        "pinyin": "Neijiang",
        "lat": 29.58588653832045,
        "lng": 105.06458802499718,
        "address": "四川省/内江市",
        "code": "511000",
        "province": "510000",
        "city": ""
      },
      {
        "index": 208,
        "name": "南充市",
        "shortName": "南充",
        "sortLetters": "N",
        "pinyin": "Nanchong",
        "lat": 30.843782508337036,
        "lng": 106.11750261487227,
        "address": "四川省/南充市",
        "code": "511300",
        "province": "510000",
        "city": ""
      },
      {
        "index": 209,
        "name": "南平市",
        "shortName": "南平",
        "sortLetters": "N",
        "pinyin": "Nanping",
        "lat": 26.647772874203266,
        "lng": 118.1843695481426,
        "address": "福建省/南平市",
        "code": "350700",
        "province": "350000",
        "city": ""
      }
    ]
  },
  {
    "sortLetters": "P",
    "items": [
      {
        "index": 215,
        "name": "盘锦市",
        "shortName": "盘锦",
        "sortLetters": "P",
        "pinyin": "Panjin",
        "lat": 41.12587528873715,
        "lng": 122.07749009021381,
        "address": "辽宁省/盘锦市",
        "code": "211100",
        "province": "210000",
        "city": ""
      },
      {
        "index": 216,
        "name": "攀枝花市",
        "shortName": "攀枝花",
        "sortLetters": "P",
        "pinyin": "Panzhihua",
        "lat": 26.58803317333301,
        "lng": 101.72554117091441,
        "address": "四川省/攀枝花市",
        "code": "510400",
        "province": "510000",
        "city": ""
      },
      {
        "index": 217,
        "name": "平顶山市",
        "shortName": "平顶山",
        "sortLetters": "P",
        "pinyin": "Pingdingshan",
        "lat": 33.772050748691015,
        "lng": 113.19952856052156,
        "address": "河南省/平顶山市",
        "code": "410400",
        "province": "410000",
        "city": ""
      },
      {
        "index": 218,
        "name": "平凉市",
        "shortName": "平凉",
        "sortLetters": "P",
        "pinyin": "Pingliang",
        "lat": 35.549232050463516,
        "lng": 106.67144234827796,
        "address": "甘肃省/平凉市",
        "code": "620800",
        "province": "620000",
        "city": ""
      },
      {
        "index": 220,
        "name": "普洱市",
        "shortName": "普洱",
        "sortLetters": "P",
        "pinyin": "Puer",
        "lat": 22.830979186010275,
        "lng": 100.97256981472799,
        "address": "云南省/普洱市",
        "code": "530800",
        "province": "530000",
        "city": ""
      },
      {
        "index": 221,
        "name": "莆田市",
        "shortName": "莆田",
        "sortLetters": "P",
        "pinyin": "Putian",
        "lat": 25.45986545592271,
        "lng": 119.0145209781265,
        "address": "福建省/莆田市",
        "code": "350300",
        "province": "350000",
        "city": ""
      },
      {
        "index": 222,
        "name": "濮阳市",
        "shortName": "濮阳",
        "sortLetters": "P",
        "pinyin": "Puyang",
        "lat": 35.76759302890629,
        "lng": 115.03559747034215,
        "address": "河南省/濮阳市",
        "code": "410900",
        "province": "410000",
        "city": ""
      },
      {
        "index": 215,
        "name": "盘锦市",
        "shortName": "盘锦",
        "sortLetters": "P",
        "pinyin": "Panjin",
        "lat": 41.12587528873715,
        "lng": 122.07749009021381,
        "address": "辽宁省/盘锦市",
        "code": "211100",
        "province": "210000",
        "city": ""
      }
    ]
  },
  {
    "sortLetters": "Q",
    "items": [
      {
        "index": 33,
        "name": "青岛市",
        "shortName": "青岛",
        "sortLetters": "Q",
        "pinyin": "Qingdao",
        "lat": 36.072227496663224,
        "lng": 120.38945519114627,
        "address": "山东省/青岛市",
        "code": "370200",
        "province": "370000",
        "city": ""
      },
      {
        "index": 34,
        "name": "泉州市",
        "shortName": "泉州",
        "sortLetters": "Q",
        "pinyin": "Quanzhou",
        "lat": 24.879952330498313,
        "lng": 118.68244626680422,
        "address": "福建省/泉州市",
        "code": "350500",
        "province": "350000",
        "city": ""
      },
      {
        "index": 224,
        "name": "黔南布依族苗族自治州",
        "shortName": "黔南",
        "sortLetters": "Q",
        "pinyin": "Qiannan",
        "lat": 26.260616196073833,
        "lng": 107.5284027057371,
        "address": "贵州省/黔南布依族苗族自治州",
        "code": "522700",
        "province": "520000",
        "city": ""
      },
      {
        "index": 225,
        "name": "黔西南布依族苗族自治州",
        "shortName": "黔西南",
        "sortLetters": "Q",
        "pinyin": "Qianxinan",
        "lat": 27.014344747084042,
        "lng": 106.03857397725803,
        "address": "贵州省/黔西南布依族苗族自治州",
        "code": "522300",
        "province": "520000",
        "city": ""
      },
      {
        "index": 226,
        "name": "庆阳市",
        "shortName": "庆阳",
        "sortLetters": "Q",
        "pinyin": "Qingyang",
        "lat": 35.71521598356201,
        "lng": 107.6493856959542,
        "address": "甘肃省/庆阳市",
        "code": "621000",
        "province": "620000",
        "city": ""
      },
      {
        "index": 227,
        "name": "清远市",
        "shortName": "清远",
        "sortLetters": "Q",
        "pinyin": "Qingyuan",
        "lat": 23.688230292088083,
        "lng": 113.06246832527266,
        "address": "广东省/清远市",
        "code": "441800",
        "province": "440000",
        "city": ""
      },
      {
        "index": 228,
        "name": "秦皇岛市",
        "shortName": "秦皇岛",
        "sortLetters": "Q",
        "pinyin": "Qinhuangdao",
        "lat": 39.941748102377936,
        "lng": 119.60853063334328,
        "address": "河北省/秦皇岛市",
        "code": "130300",
        "province": "130000",
        "city": ""
      },
      {
        "index": 229,
        "name": "钦州市",
        "shortName": "钦州",
        "sortLetters": "Q",
        "pinyin": "Qinzhou",
        "lat": 21.986593539484296,
        "lng": 108.66058016842224,
        "address": "广西壮族自治区/钦州市",
        "code": "450700",
        "province": "450000",
        "city": ""
      },
      {
        "index": 230,
        "name": "齐齐哈尔市",
        "shortName": "齐齐哈尔",
        "sortLetters": "Q",
        "pinyin": "Qiqihaer",
        "lat": 47.3599771860153,
        "lng": 123.92457086841536,
        "address": "黑龙江省/齐齐哈尔市",
        "code": "230200",
        "province": "230000",
        "city": ""
      },
      {
        "index": 231,
        "name": "七台河市",
        "shortName": "七台河",
        "sortLetters": "Q",
        "pinyin": "Qitaihe",
        "lat": 45.77630032154785,
        "lng": 131.01154459102744,
        "address": "黑龙江省/七台河市",
        "code": "230900",
        "province": "230000",
        "city": ""
      },
      {
        "index": 232,
        "name": "曲靖市",
        "shortName": "曲靖",
        "sortLetters": "Q",
        "pinyin": "Qujing",
        "lat": 25.496406931543667,
        "lng": 103.80243482794681,
        "address": "云南省/曲靖市",
        "code": "530300",
        "province": "530000",
        "city": ""
      },
      {
        "index": 233,
        "name": "衢州市",
        "shortName": "衢州",
        "sortLetters": "Q",
        "pinyin": "Quzhou",
        "lat": 28.975545802265025,
        "lng": 118.86659674035565,
        "address": "浙江省/衢州市",
        "code": "330800",
        "province": "330000",
        "city": ""
      }
    ]
  },
  {
    "sortLetters": "R",
    "items": [
      {
        "index": 235,
        "name": "日照市",
        "shortName": "日照",
        "sortLetters": "R",
        "pinyin": "Rizhao",
        "lat": 35.42283899843767,
        "lng": 119.53341540456555,
        "address": "山东省/日照市",
        "code": "371100",
        "province": "370000",
        "city": ""
      }
    ]
  },
  {
    "sortLetters": "S",
    "items": [
      {
        "index": 249,
        "name": "石嘴山市",
        "shortName": "石嘴山",
        "sortLetters": "S",
        "pinyin": "Shizuishan",
        "lat": 38.98968283991508,
        "lng": 106.3906004255049,
        "address": "宁夏回族自治区/石嘴山市",
        "code": "640200",
        "province": "640000",
        "city": ""
      },
      {
        "index": 250,
        "name": "双鸭山市",
        "shortName": "双鸭山",
        "sortLetters": "S",
        "pinyin": "Shuangyashan",
        "lat": 46.65318589588607,
        "lng": 131.16534168078073,
        "address": "黑龙江省/双鸭山市",
        "code": "230500",
        "province": "230000",
        "city": ""
      },
      {
        "index": 251,
        "name": "朔州市",
        "shortName": "朔州",
        "sortLetters": "S",
        "pinyin": "Shuozhou",
        "lat": 39.337108370541735,
        "lng": 112.4393709396677,
        "address": "山西省/朔州市",
        "code": "140600",
        "province": "140000",
        "city": ""
      },
      {
        "index": 252,
        "name": "四平市",
        "shortName": "四平",
        "sortLetters": "S",
        "pinyin": "Siping",
        "lat": 43.171993571561,
        "lng": 124.35648155715893,
        "address": "吉林省/四平市",
        "code": "220300",
        "province": "220000",
        "city": ""
      },
      {
        "index": 253,
        "name": "松原市",
        "shortName": "松原",
        "sortLetters": "S",
        "pinyin": "Songyuan",
        "lat": 45.14740419341382,
        "lng": 124.83148187569292,
        "address": "吉林省/松原市",
        "code": "220700",
        "province": "220000",
        "city": ""
      },
      {
        "index": 254,
        "name": "绥化市",
        "shortName": "绥化",
        "sortLetters": "S",
        "pinyin": "Suihua",
        "lat": 46.6600321798244,
        "lng": 126.97535687530133,
        "address": "黑龙江省/绥化市",
        "code": "231200",
        "province": "230000",
        "city": ""
      },
      {
        "index": 255,
        "name": "遂宁市",
        "shortName": "遂宁",
        "sortLetters": "S",
        "pinyin": "Suining",
        "lat": 30.53909767110912,
        "lng": 105.5994215306444,
        "address": "四川省/遂宁市",
        "code": "510900",
        "province": "510000",
        "city": ""
      },
      {
        "index": 256,
        "name": "随州市",
        "shortName": "随州",
        "sortLetters": "S",
        "pinyin": "Suizhou",
        "lat": 31.6965167723283,
        "lng": 113.38945001822157,
        "address": "湖北省/随州市",
        "code": "421300",
        "province": "420000",
        "city": ""
      },
      {
        "index": 257,
        "name": "宿迁市",
        "shortName": "宿迁",
        "sortLetters": "S",
        "pinyin": "Suqian",
        "lat": 33.96774971569008,
        "lng": 118.28157403570837,
        "address": "江苏省/宿迁市",
        "code": "321300",
        "province": "320000",
        "city": ""
      },
      {
        "index": 258,
        "name": "宿州市",
        "shortName": "宿州",
        "sortLetters": "S",
        "pinyin": "Suzhou",
        "lat": 33.65209532645213,
        "lng": 116.97054394561262,
        "address": "安徽省/宿州市",
        "code": "341300",
        "province": "340000",
        "city": ""
      },
      {
        "index": 236,
        "name": "三门峡市",
        "shortName": "三门峡",
        "sortLetters": "S",
        "pinyin": "Sanmenxia",
        "lat": 34.778327249459984,
        "lng": 111.2065332238741,
        "address": "河南省/三门峡市",
        "code": "411200",
        "province": "410000",
        "city": ""
      },
      {
        "index": 237,
        "name": "三明市",
        "shortName": "三明",
        "sortLetters": "S",
        "pinyin": "Sanming",
        "lat": 26.269736515991838,
        "lng": 117.64552116782143,
        "address": "福建省/三明市",
        "code": "350400",
        "province": "350000",
        "city": ""
      },
      {
        "index": 239,
        "name": "商洛市",
        "shortName": "商洛",
        "sortLetters": "S",
        "pinyin": "Shangluo",
        "lat": 33.87863385220776,
        "lng": 109.92441788136406,
        "address": "陕西省/商洛市",
        "code": "611000",
        "province": "610000",
        "city": ""
      },
      {
        "index": 240,
        "name": "商丘市",
        "shortName": "商丘",
        "sortLetters": "S",
        "pinyin": "Shangqiu",
        "lat": 34.4202016658586,
        "lng": 115.66244933826238,
        "address": "河南省/商丘市",
        "code": "411400",
        "province": "410000",
        "city": ""
      },
      {
        "index": 35,
        "name": "沈阳市",
        "shortName": "沈阳",
        "sortLetters": "S",
        "pinyin": "Shenyang",
        "lat": 41.68383006919066,
        "lng": 123.47109664482264,
        "address": "辽宁省/沈阳市",
        "code": "210100",
        "province": "210000",
        "city": ""
      },
      {
        "index": 36,
        "name": "深圳市",
        "shortName": "深圳",
        "sortLetters": "S",
        "pinyin": "Shenzhen",
        "lat": 22.548456637984177,
        "lng": 114.06455183658751,
        "address": "广东省/深圳市",
        "code": "440300",
        "province": "440000",
        "city": ""
      },
      {
        "index": 37,
        "name": "石家庄市",
        "shortName": "石家庄",
        "sortLetters": "S",
        "pinyin": "Shijiazhuang",
        "lat": 38.052097109846855,
        "lng": 114.46902163264978,
        "address": "河北省/石家庄市",
        "code": "130100",
        "province": "130000",
        "city": ""
      },
      {
        "index": 38,
        "name": "苏州市",
        "shortName": "苏州",
        "sortLetters": "S",
        "pinyin": "Suzhou",
        "lat": 31.303564074441766,
        "lng": 120.59241222959322,
        "address": "江苏省/苏州市",
        "code": "320500",
        "province": "320000",
        "city": ""
      },
      {
        "index": 241,
        "name": "上饶市",
        "shortName": "上饶",
        "sortLetters": "S",
        "pinyin": "Shangrao",
        "lat": 28.460625921851733,
        "lng": 117.94945960312224,
        "address": "江西省/上饶市",
        "code": "361100",
        "province": "360000",
        "city": ""
      },
      {
        "index": 242,
        "name": "山南市",
        "shortName": "山南",
        "sortLetters": "S",
        "pinyin": "Shannan",
        "lat": 29.243026939249226,
        "lng": 91.77867513851903,
        "address": "西藏自治区/山南市",
        "code": "540500",
        "province": "540000",
        "city": ""
      },
      {
        "index": 243,
        "name": "汕头市",
        "shortName": "汕头",
        "sortLetters": "S",
        "pinyin": "Shantou",
        "lat": 23.35909171772515,
        "lng": 116.68852864054833,
        "address": "广东省/汕头市",
        "code": "440500",
        "province": "440000",
        "city": ""
      },
      {
        "index": 244,
        "name": "汕尾市",
        "shortName": "汕尾",
        "sortLetters": "S",
        "pinyin": "Shanwei",
        "lat": 22.79126303654673,
        "lng": 115.38155260365083,
        "address": "广东省/汕尾市",
        "code": "441500",
        "province": "440000",
        "city": ""
      },
      {
        "index": 245,
        "name": "韶关市",
        "shortName": "韶关",
        "sortLetters": "S",
        "pinyin": "Shaoguan",
        "lat": 24.815881278583017,
        "lng": 113.60352734562261,
        "address": "广东省/韶关市",
        "code": "440200",
        "province": "440000",
        "city": ""
      },
      {
        "index": 246,
        "name": "绍兴市",
        "shortName": "绍兴",
        "sortLetters": "S",
        "pinyin": "Shaoxing",
        "lat": 30.0363693113069,
        "lng": 120.58547847885335,
        "address": "浙江省/绍兴市",
        "code": "330600",
        "province": "330000",
        "city": ""
      },
      {
        "index": 247,
        "name": "邵阳市",
        "shortName": "邵阳",
        "sortLetters": "S",
        "pinyin": "Shaoyang",
        "lat": 27.245270272808565,
        "lng": 111.474432885931,
        "address": "湖南省/邵阳市",
        "code": "430500",
        "province": "430000",
        "city": ""
      },
      {
        "index": 248,
        "name": "十堰市",
        "shortName": "十堰",
        "sortLetters": "S",
        "pinyin": "Shiyan",
        "lat": 32.63506185840116,
        "lng": 110.80452956069568,
        "address": "湖北省/十堰市",
        "code": "420300",
        "province": "420000",
        "city": ""
      },
      {
        "index": 719,
        "name": "三门峡市",
        "shortName": "三门",
        "sortLetters": "S",
        "pinyin": "Sanmen",
        "lat": 34.778327249459984,
        "lng": 111.2065332238741,
        "address": "河南省/三门峡市",
        "code": "411200",
        "province": "410000",
        "city": ""
      },
      {
        "index": 726,
        "name": "上饶市",
        "shortName": "上饶",
        "sortLetters": "S",
        "pinyin": "Shangrao",
        "lat": 28.460625921851733,
        "lng": 117.94945960312224,
        "address": "江西省/上饶市",
        "code": "361100",
        "province": "360000",
        "city": ""
      },
      {
        "index": 731,
        "name": "绍兴市",
        "shortName": "绍兴",
        "sortLetters": "S",
        "pinyin": "Shaoxing",
        "lat": 30.0363693113069,
        "lng": 120.58547847885335,
        "address": "浙江省/绍兴市",
        "code": "330600",
        "province": "330000",
        "city": ""
      },
      {
        "index": 238,
        "name": "三亚市",
        "shortName": "三亚",
        "sortLetters": "S",
        "pinyin": "Sanya",
        "lat": 18.258736291747855,
        "lng": 109.51855670139908,
        "address": "海南省/三亚市",
        "code": "460200",
        "province": "460000",
        "city": ""
      }
    ]
  },
  {
    "sortLetters": "T",
    "items": [
      {
        "index": 40,
        "name": "唐山市",
        "shortName": "唐山",
        "sortLetters": "T",
        "pinyin": "Tangshan",
        "lat": 39.63658372414733,
        "lng": 118.18645947203979,
        "address": "河北省/唐山市",
        "code": "130200",
        "province": "130000",
        "city": ""
      },
      {
        "index": 259,
        "name": "塔城地区",
        "shortName": "塔城地",
        "sortLetters": "T",
        "pinyin": "Tachengdi",
        "lat": 46.750948254373434,
        "lng": 82.9872355184064,
        "address": "新疆维吾尔自治区/塔城地区",
        "code": "654200",
        "province": "650000",
        "city": ""
      },
      {
        "index": 260,
        "name": "泰安市",
        "shortName": "泰安",
        "sortLetters": "T",
        "pinyin": "Taian",
        "lat": 36.2058580448846,
        "lng": 117.0944948347959,
        "address": "山东省/泰安市",
        "code": "370900",
        "province": "370000",
        "city": ""
      },
      {
        "index": 261,
        "name": "太原市",
        "shortName": "太原",
        "sortLetters": "T",
        "pinyin": "Taiyuan",
        "lat": 37.87698902884778,
        "lng": 112.55639149167204,
        "address": "山西省/太原市",
        "code": "140100",
        "province": "140000",
        "city": ""
      },
      {
        "index": 262,
        "name": "泰州市",
        "shortName": "泰州",
        "sortLetters": "T",
        "pinyin": "Taizhou",
        "lat": 32.4606750493083,
        "lng": 119.9295663378548,
        "address": "江苏省/泰州市",
        "code": "321200",
        "province": "320000",
        "city": ""
      },
      {
        "index": 263,
        "name": "天水市",
        "shortName": "天水",
        "sortLetters": "T",
        "pinyin": "Tianshui",
        "lat": 34.58741188165064,
        "lng": 105.73141674566955,
        "address": "甘肃省/天水市",
        "code": "620500",
        "province": "620000",
        "city": ""
      },
      {
        "index": 264,
        "name": "铁岭市",
        "shortName": "铁岭",
        "sortLetters": "T",
        "pinyin": "Tieling",
        "lat": 42.22994799718447,
        "lng": 123.73236520917769,
        "address": "辽宁省/铁岭市",
        "code": "211200",
        "province": "210000",
        "city": ""
      },
      {
        "index": 265,
        "name": "铜川市",
        "shortName": "铜川",
        "sortLetters": "T",
        "pinyin": "Tongchuan",
        "lat": 34.902637080502906,
        "lng": 108.95240424835922,
        "address": "陕西省/铜川市",
        "code": "610200",
        "province": "610000",
        "city": ""
      },
      {
        "index": 266,
        "name": "通化市",
        "shortName": "通化",
        "sortLetters": "T",
        "pinyin": "Tonghua",
        "lat": 41.733815801613424,
        "lng": 125.94660627598029,
        "address": "吉林省/通化市",
        "code": "220500",
        "province": "220000",
        "city": ""
      },
      {
        "index": 267,
        "name": "通辽市",
        "shortName": "通辽",
        "sortLetters": "T",
        "pinyin": "Tongliao",
        "lat": 43.657980083916655,
        "lng": 122.25052178737633,
        "address": "内蒙古自治区/通辽市",
        "code": "150500",
        "province": "150000",
        "city": ""
      },
      {
        "index": 268,
        "name": "铜陵市",
        "shortName": "铜陵",
        "sortLetters": "T",
        "pinyin": "Tongling",
        "lat": 30.95123323991339,
        "lng": 117.81847679445747,
        "address": "安徽省/铜陵市",
        "code": "340700",
        "province": "340000",
        "city": ""
      },
      {
        "index": 269,
        "name": "铜仁市",
        "shortName": "铜仁",
        "sortLetters": "T",
        "pinyin": "Tongren",
        "lat": 27.73778645640524,
        "lng": 109.19643889817665,
        "address": "贵州省/铜仁市",
        "code": "520600",
        "province": "520000",
        "city": ""
      },
      {
        "index": 270,
        "name": "吐鲁番市",
        "shortName": "吐鲁番",
        "sortLetters": "T",
        "pinyin": "Tulufan",
        "lat": 42.95698484877124,
        "lng": 89.1972972460079,
        "address": "新疆维吾尔自治区/吐鲁番市",
        "code": "650400",
        "province": "650000",
        "city": ""
      },
      {
        "index": 787,
        "name": "铜陵市",
        "shortName": "铜陵",
        "sortLetters": "T",
        "pinyin": "Tongling",
        "lat": 30.95123323991339,
        "lng": 117.81847679445747,
        "address": "安徽省/铜陵市",
        "code": "340700",
        "province": "340000",
        "city": ""
      },
      {
        "index": 40,
        "name": "唐山市",
        "shortName": "唐山",
        "sortLetters": "T",
        "pinyin": "Tangshan",
        "lat": 39.63658372414733,
        "lng": 118.18645947203979,
        "address": "河北省/唐山市",
        "code": "130200",
        "province": "130000",
        "city": ""
      }
    ]
  },
  {
    "sortLetters": "W",
    "items": [
      {
        "index": 278,
        "name": "武威市",
        "shortName": "武威",
        "sortLetters": "W",
        "pinyin": "Wuwei",
        "lat": 37.93437780815811,
        "lng": 102.64455434036918,
        "address": "甘肃省/武威市",
        "code": "620600",
        "province": "620000",
        "city": ""
      },
      {
        "index": 279,
        "name": "吴忠市",
        "shortName": "吴忠",
        "sortLetters": "W",
        "pinyin": "Wuzhong",
        "lat": 38.00371291345338,
        "lng": 106.20537126663626,
        "address": "宁夏回族自治区/吴忠市",
        "code": "640300",
        "province": "640000",
        "city": ""
      },
      {
        "index": 280,
        "name": "梧州市",
        "shortName": "梧州",
        "sortLetters": "W",
        "pinyin": "Wuzhou",
        "lat": 23.48274528113516,
        "lng": 111.28551681182014,
        "address": "广西壮族自治区/梧州市",
        "code": "450400",
        "province": "450000",
        "city": ""
      },
      {
        "index": 43,
        "name": "武汉市",
        "shortName": "武汉",
        "sortLetters": "W",
        "pinyin": "Wuhan",
        "lat": 30.598466736400987,
        "lng": 114.31158155473231,
        "address": "湖北省/武汉市",
        "code": "420100",
        "province": "420000",
        "city": ""
      },
      {
        "index": 44,
        "name": "无锡市",
        "shortName": "无锡",
        "sortLetters": "W",
        "pinyin": "Wuxi",
        "lat": 31.498809732685714,
        "lng": 120.31858328810601,
        "address": "江苏省/无锡市",
        "code": "320200",
        "province": "320000",
        "city": ""
      },
      {
        "index": 42,
        "name": "威海市",
        "shortName": "威海",
        "sortLetters": "W",
        "pinyin": "Weihai",
        "lat": 37.5164305480148,
        "lng": 122.12754097831325,
        "address": "山东省/威海市",
        "code": "371000",
        "province": "370000",
        "city": ""
      },
      {
        "index": 271,
        "name": "渭南市",
        "shortName": "渭南",
        "sortLetters": "W",
        "pinyin": "Weinan",
        "lat": 34.50571551675255,
        "lng": 109.51658960525897,
        "address": "陕西省/渭南市",
        "code": "610500",
        "province": "610000",
        "city": ""
      },
      {
        "index": 272,
        "name": "文山壮族苗族自治州",
        "shortName": "文山",
        "sortLetters": "W",
        "pinyin": "Wenshan",
        "lat": 23.40599429361173,
        "lng": 104.22256899109433,
        "address": "云南省/文山壮族苗族自治州",
        "code": "532600",
        "province": "530000",
        "city": ""
      },
      {
        "index": 273,
        "name": "温州市",
        "shortName": "温州",
        "sortLetters": "W",
        "pinyin": "Wenzhou",
        "lat": 28.00108540447221,
        "lng": 120.70647689035565,
        "address": "浙江省/温州市",
        "code": "330300",
        "province": "330000",
        "city": ""
      },
      {
        "index": 274,
        "name": "乌海市",
        "shortName": "乌海",
        "sortLetters": "W",
        "pinyin": "Wuhai",
        "lat": 39.6620063648907,
        "lng": 106.80039104999656,
        "address": "内蒙古自治区/乌海市",
        "code": "150300",
        "province": "150000",
        "city": ""
      },
      {
        "index": 275,
        "name": "芜湖市",
        "shortName": "芜湖",
        "sortLetters": "W",
        "pinyin": "Wuhu",
        "lat": 31.358536655799266,
        "lng": 118.43943137653523,
        "address": "安徽省/芜湖市",
        "code": "340200",
        "province": "340000",
        "city": ""
      },
      {
        "index": 276,
        "name": "乌兰察布市",
        "shortName": "乌兰察布",
        "sortLetters": "W",
        "pinyin": "Wulanchabu",
        "lat": 41.00074832767381,
        "lng": 113.13946767446333,
        "address": "内蒙古自治区/乌兰察布市",
        "code": "150900",
        "province": "150000",
        "city": ""
      },
      {
        "index": 277,
        "name": "乌鲁木齐市",
        "shortName": "乌鲁木齐",
        "sortLetters": "W",
        "pinyin": "Wulumuqi",
        "lat": 43.830763204290484,
        "lng": 87.62443993536046,
        "address": "新疆维吾尔自治区/乌鲁木齐市",
        "code": "650100",
        "province": "650000",
        "city": ""
      },
      {
        "index": 812,
        "name": "芜湖市",
        "shortName": "芜湖",
        "sortLetters": "W",
        "pinyin": "Wuhu",
        "lat": 31.358536655799266,
        "lng": 118.43943137653523,
        "address": "安徽省/芜湖市",
        "code": "340200",
        "province": "340000",
        "city": ""
      }
    ]
  },
  {
    "sortLetters": "X",
    "items": [
      {
        "index": 289,
        "name": "邢台市",
        "shortName": "邢台",
        "sortLetters": "X",
        "pinyin": "Xingtai",
        "lat": 37.07716685005908,
        "lng": 115.0316624430557,
        "address": "河北省/邢台市",
        "code": "130500",
        "province": "130000",
        "city": ""
      },
      {
        "index": 290,
        "name": "西宁市",
        "shortName": "西宁",
        "sortLetters": "X",
        "pinyin": "Xining",
        "lat": 36.62338469651661,
        "lng": 101.78445017050855,
        "address": "青海省/西宁市",
        "code": "630100",
        "province": "630000",
        "city": ""
      },
      {
        "index": 291,
        "name": "新乡市",
        "shortName": "新乡",
        "sortLetters": "X",
        "pinyin": "Xinxiang",
        "lat": 35.3096399303368,
        "lng": 113.93360046733228,
        "address": "河南省/新乡市",
        "code": "410700",
        "province": "410000",
        "city": ""
      },
      {
        "index": 292,
        "name": "信阳市",
        "shortName": "信阳",
        "sortLetters": "X",
        "pinyin": "Xinyang",
        "lat": 32.15301454753105,
        "lng": 114.09748283304512,
        "address": "河南省/信阳市",
        "code": "411500",
        "province": "410000",
        "city": ""
      },
      {
        "index": 293,
        "name": "新余市",
        "shortName": "新余",
        "sortLetters": "X",
        "pinyin": "Xinyu",
        "lat": 27.823578697788587,
        "lng": 114.9235346513963,
        "address": "江西省/新余市",
        "code": "360500",
        "province": "360000",
        "city": ""
      },
      {
        "index": 294,
        "name": "忻州市",
        "shortName": "忻州",
        "sortLetters": "X",
        "pinyin": "Xinzhou",
        "lat": 38.42238338517772,
        "lng": 112.74062416023847,
        "address": "山西省/忻州市",
        "code": "140900",
        "province": "140000",
        "city": ""
      },
      {
        "index": 295,
        "name": "西双版纳傣族自治州",
        "shortName": "西双版纳",
        "sortLetters": "X",
        "pinyin": "Xishuangbanna",
        "lat": 22.013601254764165,
        "lng": 100.80344682455637,
        "address": "云南省/西双版纳傣族自治州",
        "code": "532800",
        "province": "530000",
        "city": ""
      },
      {
        "index": 48,
        "name": "徐州市",
        "shortName": "徐州",
        "sortLetters": "X",
        "pinyin": "Xuzhou",
        "lat": 34.21266655011306,
        "lng": 117.29057543439453,
        "address": "江苏省/徐州市",
        "code": "320300",
        "province": "320000",
        "city": ""
      },
      {
        "index": 45,
        "name": "厦门市",
        "shortName": "厦门",
        "sortLetters": "X",
        "pinyin": "Xiamen",
        "lat": 24.485406605176305,
        "lng": 118.09643549976651,
        "address": "福建省/厦门市",
        "code": "350200",
        "province": "350000",
        "city": ""
      },
      {
        "index": 46,
        "name": "西安市",
        "shortName": "西安",
        "sortLetters": "X",
        "pinyin": "Xian",
        "lat": 34.34726881662395,
        "lng": 108.94646555063274,
        "address": "陕西省/西安市",
        "code": "610100",
        "province": "610000",
        "city": ""
      },
      {
        "index": 47,
        "name": "许昌市",
        "shortName": "许昌",
        "sortLetters": "X",
        "pinyin": "Xuchang",
        "lat": 34.04143161161871,
        "lng": 113.85847553685502,
        "address": "河南省/许昌市",
        "code": "411000",
        "province": "410000",
        "city": ""
      },
      {
        "index": 282,
        "name": "湘潭市",
        "shortName": "湘潭",
        "sortLetters": "X",
        "pinyin": "Xiangtan",
        "lat": 27.835702227135585,
        "lng": 112.95046418076468,
        "address": "湖南省/湘潭市",
        "code": "430300",
        "province": "430000",
        "city": ""
      },
      {
        "index": 283,
        "name": "湘西土家族苗族自治州",
        "shortName": "湘西",
        "sortLetters": "X",
        "pinyin": "Xiangxi",
        "lat": 28.317369104701186,
        "lng": 109.74557664946683,
        "address": "湖南省/湘西土家族苗族自治州",
        "code": "433100",
        "province": "430000",
        "city": ""
      },
      {
        "index": 284,
        "name": "咸宁市",
        "shortName": "咸宁",
        "sortLetters": "X",
        "pinyin": "Xianning",
        "lat": 29.847055947646492,
        "lng": 114.32851909026844,
        "address": "湖北省/咸宁市",
        "code": "421200",
        "province": "420000",
        "city": ""
      },
      {
        "index": 285,
        "name": "咸阳市",
        "shortName": "咸阳",
        "sortLetters": "X",
        "pinyin": "Xianyang",
        "lat": 34.335476293368586,
        "lng": 108.71542245143303,
        "address": "陕西省/咸阳市",
        "code": "610400",
        "province": "610000",
        "city": ""
      },
      {
        "index": 286,
        "name": "孝感市",
        "shortName": "孝感",
        "sortLetters": "X",
        "pinyin": "Xiaogan",
        "lat": 30.930689227018295,
        "lng": 113.92251007733665,
        "address": "湖北省/孝感市",
        "code": "420900",
        "province": "420000",
        "city": ""
      },
      {
        "index": 287,
        "name": "锡林郭勒盟",
        "shortName": "锡林郭勒盟",
        "sortLetters": "X",
        "pinyin": "Xilinguolemeng",
        "lat": 43.93942266533856,
        "lng": 116.05439144074573,
        "address": "内蒙古自治区/锡林郭勒盟",
        "code": "152500",
        "province": "150000",
        "city": ""
      },
      {
        "index": 288,
        "name": "兴安盟",
        "shortName": "兴安盟",
        "sortLetters": "X",
        "pinyin": "Xinganmeng",
        "lat": 46.08846371321896,
        "lng": 122.04436452582519,
        "address": "内蒙古自治区/兴安盟",
        "code": "152200",
        "province": "150000",
        "city": ""
      },
      {
        "index": 45,
        "name": "厦门市",
        "shortName": "厦门",
        "sortLetters": "X",
        "pinyin": "Xiamen",
        "lat": 24.485406605176305,
        "lng": 118.09643549976651,
        "address": "福建省/厦门市",
        "code": "350200",
        "province": "350000",
        "city": ""
      },
      {
        "index": 48,
        "name": "徐州市",
        "shortName": "徐州",
        "sortLetters": "X",
        "pinyin": "Xuzhou",
        "lat": 34.21266655011306,
        "lng": 117.29057543439453,
        "address": "江苏省/徐州市",
        "code": "320300",
        "province": "320000",
        "city": ""
      }
    ]
  },
  {
    "sortLetters": "Y",
    "items": [
      {
        "index": 299,
        "name": "延边朝鲜族自治州",
        "shortName": "延边",
        "sortLetters": "Y",
        "pinyin": "Yanbian",
        "lat": 42.91574303372181,
        "lng": 129.4773763202274,
        "address": "吉林省/延边朝鲜族自治州",
        "code": "222400",
        "province": "220000",
        "city": ""
      },
      {
        "index": 300,
        "name": "盐城市",
        "shortName": "盐城",
        "sortLetters": "Y",
        "pinyin": "Yancheng",
        "lat": 33.355100917626196,
        "lng": 120.167544265761,
        "address": "江苏省/盐城市",
        "code": "320900",
        "province": "320000",
        "city": ""
      },
      {
        "index": 301,
        "name": "阳江市",
        "shortName": "阳江",
        "sortLetters": "Y",
        "pinyin": "Yangjiang",
        "lat": 21.864339726138933,
        "lng": 111.98848929181268,
        "address": "广东省/阳江市",
        "code": "441700",
        "province": "440000",
        "city": ""
      },
      {
        "index": 50,
        "name": "烟台市",
        "shortName": "烟台",
        "sortLetters": "Y",
        "pinyin": "Yantai",
        "lat": 37.470038383730525,
        "lng": 121.45441541730195,
        "address": "山东省/烟台市",
        "code": "370600",
        "province": "370000",
        "city": ""
      },
      {
        "index": 302,
        "name": "阳泉市",
        "shortName": "阳泉",
        "sortLetters": "Y",
        "pinyin": "Yangquan",
        "lat": 37.862360847859385,
        "lng": 113.58761666287546,
        "address": "山西省/阳泉市",
        "code": "140300",
        "province": "140000",
        "city": ""
      },
      {
        "index": 297,
        "name": "雅安市",
        "shortName": "雅安",
        "sortLetters": "Y",
        "pinyin": "Yaan",
        "lat": 30.01679254570607,
        "lng": 103.04954262360451,
        "address": "四川省/雅安市",
        "code": "511800",
        "province": "510000",
        "city": ""
      },
      {
        "index": 298,
        "name": "延安市",
        "shortName": "延安",
        "sortLetters": "Y",
        "pinyin": "Yanan",
        "lat": 36.59111103521779,
        "lng": 109.49658191612687,
        "address": "陕西省/延安市",
        "code": "610600",
        "province": "610000",
        "city": ""
      },
      {
        "index": 303,
        "name": "宜宾市",
        "shortName": "宜宾",
        "sortLetters": "Y",
        "pinyin": "Yibin",
        "lat": 28.75800702855183,
        "lng": 104.6494037048691,
        "address": "四川省/宜宾市",
        "code": "511500",
        "province": "510000",
        "city": ""
      },
      {
        "index": 304,
        "name": "宜昌市",
        "shortName": "宜昌",
        "sortLetters": "Y",
        "pinyin": "Yichang",
        "lat": 30.697446484492378,
        "lng": 111.29254921035434,
        "address": "湖北省/宜昌市",
        "code": "420500",
        "province": "420000",
        "city": ""
      },
      {
        "index": 305,
        "name": "伊春市",
        "shortName": "伊春",
        "sortLetters": "Y",
        "pinyin": "Yichun",
        "lat": 47.733318457230936,
        "lng": 128.84754638019822,
        "address": "黑龙江省/伊春市",
        "code": "230700",
        "province": "230000",
        "city": ""
      },
      {
        "index": 306,
        "name": "宜春市",
        "shortName": "宜春",
        "sortLetters": "Y",
        "pinyin": "Yichun",
        "lat": 27.820856421848216,
        "lng": 114.4235636759064,
        "address": "江西省/宜春市",
        "code": "360900",
        "province": "360000",
        "city": ""
      },
      {
        "index": 307,
        "name": "伊犁哈萨克自治州",
        "shortName": "伊犁哈萨克",
        "sortLetters": "Y",
        "pinyin": "Yilihasake",
        "lat": 43.92272313749215,
        "lng": 81.3305377475322,
        "address": "新疆维吾尔自治区/伊犁哈萨克自治州",
        "code": "654000",
        "province": "650000",
        "city": ""
      },
      {
        "index": 308,
        "name": "银川市",
        "shortName": "银川",
        "sortLetters": "Y",
        "pinyin": "Yinchuan",
        "lat": 38.492460055509596,
        "lng": 106.23849358740017,
        "address": "宁夏回族自治区/银川市",
        "code": "640100",
        "province": "640000",
        "city": ""
      },
      {
        "index": 309,
        "name": "营口市",
        "shortName": "营口",
        "sortLetters": "Y",
        "pinyin": "Yingkou",
        "lat": 40.67313683826707,
        "lng": 122.24157466449694,
        "address": "辽宁省/营口市",
        "code": "210800",
        "province": "210000",
        "city": ""
      },
      {
        "index": 310,
        "name": "鹰潭市",
        "shortName": "鹰潭",
        "sortLetters": "Y",
        "pinyin": "Yingtan",
        "lat": 28.265787063191418,
        "lng": 117.0755754270272,
        "address": "江西省/鹰潭市",
        "code": "360600",
        "province": "360000",
        "city": ""
      },
      {
        "index": 311,
        "name": "益阳市",
        "shortName": "益阳",
        "sortLetters": "Y",
        "pinyin": "Yiyang",
        "lat": 28.559711178489888,
        "lng": 112.36151595471031,
        "address": "湖南省/益阳市",
        "code": "430900",
        "province": "430000",
        "city": ""
      },
      {
        "index": 312,
        "name": "永州市",
        "shortName": "永州",
        "sortLetters": "Y",
        "pinyin": "Yongzhou",
        "lat": 26.425864117900094,
        "lng": 111.61945505792227,
        "address": "湖南省/永州市",
        "code": "431100",
        "province": "430000",
        "city": ""
      },
      {
        "index": 313,
        "name": "岳阳市",
        "shortName": "岳阳",
        "sortLetters": "Y",
        "pinyin": "Yueyang",
        "lat": 29.3631782939259,
        "lng": 113.13548942422142,
        "address": "湖南省/岳阳市",
        "code": "430600",
        "province": "430000",
        "city": ""
      },
      {
        "index": 314,
        "name": "玉林市",
        "shortName": "玉林",
        "sortLetters": "Y",
        "pinyin": "Yulin",
        "lat": 22.659830509953142,
        "lng": 110.1884531233724,
        "address": "广西壮族自治区/玉林市",
        "code": "450900",
        "province": "450000",
        "city": ""
      },
      {
        "index": 315,
        "name": "榆林市",
        "shortName": "榆林",
        "sortLetters": "Y",
        "pinyin": "Yulin",
        "lat": 38.290883835484046,
        "lng": 109.74161603381395,
        "address": "陕西省/榆林市",
        "code": "610800",
        "province": "610000",
        "city": ""
      },
      {
        "index": 316,
        "name": "运城市",
        "shortName": "运城",
        "sortLetters": "Y",
        "pinyin": "Yuncheng",
        "lat": 35.03270691290923,
        "lng": 111.01338945447925,
        "address": "山西省/运城市",
        "code": "140800",
        "province": "140000",
        "city": ""
      },
      {
        "index": 317,
        "name": "云浮市",
        "shortName": "云浮",
        "sortLetters": "Y",
        "pinyin": "Yunfu",
        "lat": 22.920911970342857,
        "lng": 112.05151269959146,
        "address": "广东省/云浮市",
        "code": "445300",
        "province": "440000",
        "city": ""
      },
      {
        "index": 318,
        "name": "玉树藏族自治州",
        "shortName": "玉树",
        "sortLetters": "Y",
        "pinyin": "Yushu",
        "lat": 33.01097958514274,
        "lng": 97.01318076277326,
        "address": "青海省/玉树藏族自治州",
        "code": "632700",
        "province": "630000",
        "city": ""
      },
      {
        "index": 319,
        "name": "玉溪市",
        "shortName": "玉溪",
        "sortLetters": "Y",
        "pinyin": "Yuxi",
        "lat": 24.35771094244625,
        "lng": 102.55356029311,
        "address": "云南省/玉溪市",
        "code": "530400",
        "province": "530000",
        "city": ""
      }
    ]
  },
  {
    "sortLetters": "Z",
    "items": [
      {
        "index": 329,
        "name": "周口市",
        "shortName": "周口",
        "sortLetters": "Z",
        "pinyin": "Zhoukou",
        "lat": 33.6318288757022,
        "lng": 114.70348251482332,
        "address": "河南省/周口市",
        "code": "411600",
        "province": "410000",
        "city": ""
      },
      {
        "index": 330,
        "name": "舟山市",
        "shortName": "舟山",
        "sortLetters": "Z",
        "pinyin": "Zhoushan",
        "lat": 29.99091168016034,
        "lng": 122.21355631852045,
        "address": "浙江省/舟山市",
        "code": "330900",
        "province": "330000",
        "city": ""
      },
      {
        "index": 331,
        "name": "驻马店市",
        "shortName": "驻马店",
        "sortLetters": "Z",
        "pinyin": "Zhumadian",
        "lat": 33.01784241674367,
        "lng": 114.02847078173271,
        "address": "河南省/驻马店市",
        "code": "411700",
        "province": "410000",
        "city": ""
      },
      {
        "index": 332,
        "name": "株洲市",
        "shortName": "株洲",
        "sortLetters": "Z",
        "pinyin": "Zhuzhou",
        "lat": 27.833567639016444,
        "lng": 113.14047079776427,
        "address": "湖南省/株洲市",
        "code": "430200",
        "province": "430000",
        "city": ""
      },
      {
        "index": 333,
        "name": "淄博市",
        "shortName": "淄博",
        "sortLetters": "Z",
        "pinyin": "Zibo",
        "lat": 36.81908568332188,
        "lng": 118.06145253489896,
        "address": "山东省/淄博市",
        "code": "370300",
        "province": "370000",
        "city": ""
      },
      {
        "index": 334,
        "name": "自贡市",
        "shortName": "自贡",
        "sortLetters": "Z",
        "pinyin": "Zigong",
        "lat": 29.345584921327575,
        "lng": 104.78444884671711,
        "address": "四川省/自贡市",
        "code": "510300",
        "province": "510000",
        "city": ""
      },
      {
        "index": 335,
        "name": "资阳市",
        "shortName": "资阳",
        "sortLetters": "Z",
        "pinyin": "Ziyang",
        "lat": 30.13495655925314,
        "lng": 104.6344353416441,
        "address": "四川省/资阳市",
        "code": "512000",
        "province": "510000",
        "city": ""
      },
      {
        "index": 320,
        "name": "枣庄市",
        "shortName": "枣庄",
        "sortLetters": "Z",
        "pinyin": "Zaozhuang",
        "lat": 34.815994048435115,
        "lng": 117.33054194483897,
        "address": "山东省/枣庄市",
        "code": "370400",
        "province": "370000",
        "city": ""
      },
      {
        "index": 321,
        "name": "张家界市",
        "shortName": "张家界",
        "sortLetters": "Z",
        "pinyin": "Zhangjiajie",
        "lat": 29.122815562551878,
        "lng": 110.48553254695402,
        "address": "湖南省/张家界市",
        "code": "430800",
        "province": "430000",
        "city": ""
      },
      {
        "index": 322,
        "name": "张家口市",
        "shortName": "张家口",
        "sortLetters": "Z",
        "pinyin": "Zhangjiakou",
        "lat": 40.7732372026915,
        "lng": 114.89257223145165,
        "address": "河北省/张家口市",
        "code": "130700",
        "province": "130000",
        "city": ""
      },
      {
        "index": 323,
        "name": "张掖市",
        "shortName": "张掖",
        "sortLetters": "Z",
        "pinyin": "Zhangye",
        "lat": 38.932066007004934,
        "lng": 100.45641147405634,
        "address": "甘肃省/张掖市",
        "code": "620700",
        "province": "620000",
        "city": ""
      },
      {
        "index": 324,
        "name": "湛江市",
        "shortName": "湛江",
        "sortLetters": "Z",
        "pinyin": "Zhanjiang",
        "lat": 21.276723439012073,
        "lng": 110.36555441392824,
        "address": "广东省/湛江市",
        "code": "440800",
        "province": "440000",
        "city": ""
      },
      {
        "index": 336,
        "name": "遵义市",
        "shortName": "遵义",
        "sortLetters": "Z",
        "pinyin": "Zunyi",
        "lat": 27.731700878916666,
        "lng": 106.93342774801829,
        "address": "贵州省/遵义市",
        "code": "520300",
        "province": "520000",
        "city": ""
      },
      {
        "index": 53,
        "name": "中山市",
        "shortName": "中山",
        "sortLetters": "Z",
        "pinyin": "Zhongshan",
        "lat": 22.5223146707905,
        "lng": 113.39942236263188,
        "address": "广东省/中山市",
        "code": "442000",
        "province": "440000",
        "city": ""
      },
      {
        "index": 54,
        "name": "珠海市",
        "shortName": "珠海",
        "sortLetters": "Z",
        "pinyin": "Zhuhai",
        "lat": 22.27656465424921,
        "lng": 113.58255478654918,
        "address": "广东省/珠海市",
        "code": "440400",
        "province": "440000",
        "city": ""
      },
      {
        "index": 52,
        "name": "郑州市",
        "shortName": "郑州",
        "sortLetters": "Z",
        "pinyin": "Zhengzhou",
        "lat": 34.75343885045448,
        "lng": 113.63141920733915,
        "address": "河南省/郑州市",
        "code": "410100",
        "province": "410000",
        "city": ""
      },
      {
        "index": 51,
        "name": "漳州市",
        "shortName": "漳州",
        "sortLetters": "Z",
        "pinyin": "Zhangzhou",
        "lat": 24.51892979117087,
        "lng": 117.65357645298785,
        "address": "福建省/漳州市",
        "code": "350600",
        "province": "350000",
        "city": ""
      },
      {
        "index": 326,
        "name": "昭通市",
        "shortName": "昭通",
        "sortLetters": "Z",
        "pinyin": "Zhaotong",
        "lat": 27.34408386024681,
        "lng": 103.72351177196889,
        "address": "云南省/昭通市",
        "code": "530600",
        "province": "530000",
        "city": ""
      },
      {
        "index": 327,
        "name": "镇江市",
        "shortName": "镇江",
        "sortLetters": "Z",
        "pinyin": "Zhenjiang",
        "lat": 32.19471592052375,
        "lng": 119.43048944567383,
        "address": "江苏省/镇江市",
        "code": "321100",
        "province": "320000",
        "city": ""
      },
      {
        "index": 328,
        "name": "中卫市",
        "shortName": "中卫",
        "sortLetters": "Z",
        "pinyin": "Zhongwei",
        "lat": 37.50570141870293,
        "lng": 105.20357090088713,
        "address": "宁夏回族自治区/中卫市",
        "code": "640500",
        "province": "640000",
        "city": ""
      },
      {
        "index": 942,
        "name": "忠县",
        "shortName": "忠县",
        "sortLetters": "Z",
        "pinyin": "Zhongxian",
        "lat": 30.305268389356584,
        "lng": 108.04453753385525,
        "address": "重庆市/县/忠县",
        "code": "500233",
        "province": "500000",
        "city": "500200"
      }
    ]
  }
]